City,Cloudiness,Country,Date,Humidity,Lat,Lng,Max Temp,Wind Speed
Qaqortoq,61,GL,1561677095,66,60.72,-46.03,53.6,6.93
Hithadhoo,100,MV,1561677096,69,-0.6,73.08,83.77,5.28
Vaini,100,IN,1561677096,91,15.34,74.49,77.29,6.04
Lingao,86,CN,1561677096,71,19.91,109.69,86.47,21.65
Kadoma,75,JP,1561677097,94,34.73,135.6,78.01,8.05
Butaritari,1,KI,1561677097,70,3.07,172.79,84.06,11.03
Jega,0,NG,1561677097,56,12.22,4.38,86.31,12.3
Payo,95,ID,1561677098,90,-3.75,103.64,67.16,2.91
Ushuaia,20,AR,1561677098,92,-54.81,-68.31,28.4,17.22
San Cristobal,21,HN,1561677098,59,14.68,-86.92,75.04,6.96
Mataura,4,NZ,1561677098,82,-46.19,168.86,48.0,5.99
Hobart,75,AU,1561677099,66,-42.88,147.33,57.0,9.17
Maningrida,53,AU,1561677099,71,-12.05,134.23,73.28,8.5
Tuktoyaktuk,40,CA,1561677099,81,69.44,-133.03,44.6,10.29
Hirara,75,JP,1561677100,88,24.8,125.28,82.4,16.11
La Palma,13,CO,1561677100,80,5.36,-74.39,74.2,2.62
Punta Arenas,40,CL,1561677100,74,-53.16,-70.91,28.4,13.87
Rikitea,100,PF,1561677100,82,-23.12,-134.97,75.33,17.16
Puerto Ayora,0,EC,1561677101,73,-0.74,-90.35,77.0,19.46
Sargatskoye,33,RU,1561677101,90,55.6,73.49,47.27,5.03
Port Elizabeth,1,US,1561677101,43,39.31,-74.98,91.0,3.36
Mar del Plata,2,AR,1561677102,48,-46.43,-67.52,30.8,8.1
Mehran,0,IR,1561677102,25,33.12,46.17,73.4,4.7
Dingle,93,PH,1561677103,86,11.0,122.67,77.65,8.14
Saskylakh,100,RU,1561677103,39,71.97,114.09,58.1,7.85
Ratnagiri,100,IN,1561677104,82,16.98,73.3,83.11,19.44
Vila Velha,20,BR,1561677104,78,-3.71,-38.6,80.6,12.75
Punta Cardon,75,VE,1561677104,81,11.61,-70.22,79.72,34.72
Busselton,10,AU,1561677105,98,-33.64,115.35,39.0,21.18
Port Augusta,0,AU,1561677105,67,-32.49,137.76,63.0,11.41
Saint-Philippe,75,CA,1561677105,42,45.36,-73.48,82.4,14.99
Constitucion,75,MX,1561677106,17,23.99,-104.67,82.4,11.41
Coquimbo,75,CL,1561677106,76,-29.95,-71.34,53.6,6.93
Stavyshche,0,UA,1561677106,84,50.78,28.48,56.18,12.06
Khatanga,67,RU,1561677106,63,71.98,102.47,61.47,4.59
Carnarvon,0,ZA,1561677107,28,-30.97,22.13,46.31,14.85
Tabou,77,CI,1561677107,89,4.42,-7.36,74.86,5.39
Albany,40,US,1561677107,37,42.65,-73.75,82.99,12.75
Zhigansk,95,RU,1561677108,61,66.77,123.37,68.67,13.38
Souillac,0,FR,1561677108,65,45.6,-0.6,82.4,5.82
Thanh Hoa,40,VN,1561677108,100,10.21,106.33,78.8,2.24
Celestun,38,MX,1561676986,80,20.87,-90.4,82.64,28.3
College,90,US,1561677109,37,64.86,-147.8,78.8,2.08
Vanavara,13,RU,1561677109,49,60.35,102.28,71.03,3.96
Sioux Lookout,75,CA,1561677110,38,50.1,-91.92,80.6,11.41
Bredasdorp,45,ZA,1561677110,54,-34.53,20.04,55.4,4.7
Jamestown,0,AU,1561677110,61,-33.21,138.6,61.61,16.71
Hermanus,83,ZA,1561677111,93,-34.42,19.24,52.0,13.0
Bluff,47,AU,1561677111,66,-23.58,149.07,66.33,22.91
Chuy,61,UY,1561677111,70,-33.69,-53.46,51.79,11.25
Te Anau,37,NZ,1561677112,77,-45.41,167.72,45.76,4.45
Victoria,90,BN,1561677112,83,5.28,115.24,80.6,13.11
Kapaa,75,US,1561677058,70,22.08,-159.32,84.2,20.8
Mitsamiouli,11,KM,1561677113,80,-11.38,43.28,77.54,19.82
Marsh Harbour,62,BS,1561677113,68,26.54,-77.06,83.99,9.51
Alta Floresta,0,BR,1561677113,58,-9.87,-56.08,75.08,3.06
Norman Wells,75,CA,1561677113,26,65.28,-126.83,71.6,8.05
Cape Town,75,ZA,1561676939,93,-33.93,18.42,57.99,18.34
Semey,55,KZ,1561677114,76,50.41,80.25,64.48,11.45
Barrow,100,AR,1561677114,58,-38.31,-60.23,48.94,17.69
Castro,0,CL,1561677115,83,-42.48,-73.76,37.4,8.05
Nome,1,US,1561677115,78,30.04,-94.42,87.01,5.82
Warrington,0,GB,1561677115,72,53.39,-2.59,61.0,6.93
Leningradskiy,91,RU,1561677116,91,69.38,178.42,37.75,6.4
Severo-Kurilsk,100,RU,1561677116,88,50.68,156.12,41.99,9.82
Sao Jose da Coroa Grande,4,BR,1561677116,92,-8.9,-35.15,70.58,4.59
Sao Filipe,0,CV,1561677117,86,14.9,-24.5,73.84,21.85
La Ronge,75,CA,1561677117,60,55.1,-105.3,68.0,6.93
New Norfolk,75,AU,1561677117,66,-42.78,147.06,57.0,9.17
Bosaso,58,SO,1561677117,56,11.28,49.18,90.7,15.46
Harper,1,US,1561677118,45,30.3,-99.24,87.01,14.99
Lady Frere,0,ZA,1561677118,51,-31.7,27.23,49.91,7.14
Avarua,98,CK,1561677118,83,-21.21,-159.78,71.6,10.29
Yarada,91,IN,1561677119,76,17.65,83.27,84.46,13.04
Alto Araguaia,0,BR,1561677119,55,-17.32,-53.22,68.36,4.07
Upernavik,54,GL,1561677119,83,72.79,-56.15,33.21,6.51
Puerto Madryn,40,AR,1561677119,81,-42.77,-65.04,42.8,16.11
Hilo,90,US,1561677120,74,19.71,-155.08,82.99,6.93
Fortuna,20,US,1561677120,72,40.6,-124.16,62.6,11.41
Kholodnyy,100,RU,1561677120,54,62.72,147.95,52.42,9.91
Haines Junction,83,CA,1561677121,35,60.75,-137.51,66.78,2.51
Deputatskiy,0,RU,1561677121,24,69.3,139.9,67.55,5.37
Lebu,40,ET,1561677121,93,8.96,38.73,57.2,0.94
Mirnyy,100,RU,1561677122,99,56.57,36.46,56.38,0.56
Flinders,20,AU,1561677122,100,-34.58,150.85,62.01,10.29
Ribeira Grande,38,PT,1561677122,73,38.52,-28.7,63.88,12.01
Kaitangata,42,NZ,1561677122,61,-46.28,169.85,46.0,8.99
Ostrovnoy,100,RU,1561677123,97,68.05,39.51,39.44,14.58
Colares,0,PT,1561677123,82,38.8,-9.45,66.2,10.29
Liwale,0,TZ,1561677123,69,-9.8,37.92,58.41,5.14
Unity,49,CA,1561677124,65,52.44,-109.15,72.0,3.0
Esperance,90,AU,1561677124,93,-33.86,121.89,42.8,17.22
Cidreira,0,BR,1561677124,88,-30.17,-50.22,60.55,12.1
Paka,96,CF,1561677125,96,4.15,15.03,68.0,1.83
Nuuk,20,GL,1561676826,76,64.17,-51.74,48.2,9.17
Dinguiraye,100,GN,1561677125,87,11.29,-10.71,70.94,10.29
Zeya,78,RU,1561677126,37,53.74,127.27,73.33,1.92
Moscow,75,RU,1561676528,93,55.75,37.62,59.0,8.95
Hambantota,100,LK,1561677126,77,6.12,81.12,82.4,19.01
Lasa,75,CY,1561677126,88,34.92,32.53,75.2,6.93
Calama,0,CL,1561677127,17,-22.46,-68.93,62.6,17.22
Kloulklubed,75,PW,1561677127,78,7.04,134.26,82.4,11.41
Aklavik,40,CA,1561677128,38,68.22,-135.01,60.8,4.7
Mezhdurechensk,3,RU,1561677128,79,53.69,88.07,63.41,1.7
Okhotsk,5,RU,1561677128,37,59.36,143.24,71.15,19.08
Dikson,84,RU,1561677129,96,73.51,80.55,33.8,4.74
Makubetsu,100,JP,1561677129,87,42.84,143.34,54.27,5.41
Kaeo,28,NZ,1561677129,85,-35.1,173.78,57.0,5.99
Velasco Ibarra,40,EC,1561677129,85,-1.04,-79.64,73.33,3.71
Adre,100,TD,1561677130,56,13.47,22.2,78.91,4.16
Atuona,0,PF,1561677130,74,-9.8,-139.03,80.84,13.35
Iquique,75,CL,1561676927,72,-20.22,-70.14,62.6,12.75
Ambulu,8,ID,1561677131,87,-8.35,113.61,70.2,5.91
Klaksvik,90,FO,1561677131,100,62.23,-6.59,50.0,13.87
Bhinmal,43,IN,1561677132,70,25.01,72.27,85.05,16.98
Torbay,90,CA,1561677132,93,47.66,-52.73,55.0,3.36
Elvas,0,PT,1561677132,81,38.88,-7.16,59.36,9.35
Alpena,20,US,1561677133,31,45.06,-83.43,87.8,6.93
East London,0,ZA,1561677133,25,-33.02,27.91,63.23,7.18
Chokurdakh,0,RU,1561677133,38,70.62,147.9,60.5,11.34
San Patricio,32,PY,1561677134,88,-26.98,-56.83,65.3,9.1
Airai,0,TL,1561677134,58,-8.93,125.41,72.67,3.04
Batamshinskiy,0,KZ,1561677134,57,50.56,58.27,51.8,6.71
Zelenoborskiy,19,RU,1561677135,95,66.84,32.36,40.5,3.44
Boquira,0,BR,1561677135,49,-12.82,-42.73,70.65,7.16
Talnakh,75,RU,1561677135,81,69.49,88.39,44.6,8.95
Saldanha,0,PT,1561677136,77,41.42,-6.55,63.99,2.75
Buraydah,0,SA,1561677136,17,26.33,43.97,95.0,9.17
Teofilo Otoni,11,BR,1561677136,89,-17.86,-41.51,65.79,5.28
Ancud,0,CL,1561677137,64,-41.87,-73.83,37.4,8.05
Cabo San Lucas,75,MX,1561677130,49,22.89,-109.91,96.01,20.8
Dubbo,0,AU,1561677137,87,-32.25,148.6,51.8,5.82
Santa Ana,0,MX,1561677137,18,30.54,-111.12,102.99,4.0
Udachnyy,75,RU,1561677138,77,66.42,112.4,60.8,6.71
Yeppoon,93,AU,1561677138,72,-23.13,150.74,66.2,10.29
Kamaishi,75,JP,1561677138,93,39.28,141.86,64.4,14.99
Klyuchi,61,RU,1561677139,86,52.25,79.17,56.3,9.71
Kikwit,60,CD,1561677139,50,-5.04,18.82,73.37,0.58
Kurchum,9,KZ,1561677139,61,48.57,83.65,61.04,7.58
Huarmey,12,PE,1561677140,88,-10.07,-78.15,63.45,17.34
Nagahama,75,JP,1561677140,94,35.49,136.29,77.0,2.24
Maniwaki,85,CA,1561677140,87,46.38,-75.98,61.52,3.91
Ponta do Sol,9,BR,1561677140,64,-20.63,-46.0,66.37,7.49
Pangoa,0,PE,1561677141,82,-12.12,-73.0,72.32,0.74
Port Alfred,0,ZA,1561677141,35,-33.59,26.89,66.0,5.01
Muros,0,ES,1561677142,87,42.77,-9.06,64.0,2.24
Vila Franca do Campo,20,PT,1561677142,77,37.72,-25.43,62.6,3.36
Saint George,0,GR,1561677142,60,39.45,22.34,77.0,3.13
Vostok,100,RU,1561677142,98,46.45,135.83,49.48,3.98
Verkhnyaya Sysert,20,RU,1561677143,100,56.44,60.75,42.8,4.36
Clyde River,20,CA,1561677143,49,70.47,-68.59,48.2,19.46
Poum,20,MK,1561677143,72,41.28,20.71,62.6,9.17
Kendari,16,ID,1561677144,78,-3.99,122.52,74.32,2.46
Voznesenye,100,RU,1561677144,86,61.02,35.48,49.91,2.62
Oranjemund,19,ZA,1561677144,86,-28.55,16.43,54.68,12.95
Datong,83,CN,1561677145,62,40.09,113.3,63.61,7.72
Rafai,100,CF,1561677145,99,4.95,23.92,67.43,2.75
Brownfield,40,US,1561677145,30,33.18,-102.27,93.2,16.11
Ormara,54,PK,1561677145,83,25.21,64.64,81.41,11.07
Namibe,99,AO,1561677146,80,-15.19,12.15,64.19,13.29
Puerto Maldonado,40,PE,1561677146,334,-12.59,-69.19,33.8,2.24
Teya,75,MX,1561677146,48,21.05,-89.07,87.8,11.41
Arman,29,RU,1561677147,44,59.7,150.17,64.49,3.49
Dunedin,50,NZ,1561677101,55,-45.87,170.5,55.0,3.0
Esso,68,RU,1561677147,58,55.93,158.7,48.83,2.89
Ornskoldsvik,44,SE,1561677147,46,63.29,18.72,53.6,6.93
Beringovskiy,85,RU,1561677148,64,63.05,179.32,51.39,8.14
Richards Bay,0,ZA,1561677148,62,-28.77,32.06,70.61,24.09
Ilulissat,75,GL,1561677148,69,69.22,-51.1,39.2,13.87
Kalmunai,100,LK,1561677149,75,7.42,81.82,75.8,2.91
Lorengau,79,PG,1561677149,79,-2.02,147.27,82.84,9.89
Bahia Blanca,50,AR,1561677149,55,-38.72,-62.27,48.49,14.29
Corn Island,100,NI,1561677150,79,12.17,-83.04,83.07,23.76
Caravelas,0,BR,1561677150,82,-17.73,-39.27,73.13,7.76
Binzhou,100,CN,1561677150,68,37.38,117.96,81.0,1.01
Nuevo Progreso,1,US,1561677151,49,26.05,-97.95,93.2,17.22
Jalu,0,LY,1561677151,44,29.03,21.55,82.31,10.25
Pokaran,0,IN,1561677151,54,26.93,71.92,86.38,19.28
Coihaique,20,CL,1561677151,86,-45.58,-72.07,30.2,0.83
Mbandaka,94,CD,1561677152,91,0.05,18.26,71.57,2.62
Bambous Virieux,20,MU,1561677152,78,-20.34,57.76,73.4,11.41
Bay Roberts,90,CA,1561676898,93,47.58,-53.28,55.0,3.36
Hofn,93,IS,1561677153,91,64.25,-15.21,46.3,3.6
Hokitika,90,NZ,1561677153,53,-42.72,170.96,49.18,1.05
Quatre Cocos,20,MU,1561677153,78,-20.21,57.76,73.4,11.41
Arraial do Cabo,32,BR,1561676933,90,-22.97,-42.02,72.94,5.86
Kutum,65,SD,1561677154,55,14.2,24.66,77.0,11.77
Axim,100,GH,1561677154,87,4.87,-2.24,76.9,10.51
Batagay-Alyta,83,RU,1561677154,41,67.8,130.41,67.28,4.23
Broome,4,GB,1561677155,87,52.47,1.45,57.0,5.82
Nioro,85,GM,1561677155,71,13.79,-15.05,79.56,16.89
Bitung,100,ID,1561677155,82,1.44,125.19,77.67,4.07
Qaanaaq,21,GL,1561677150,52,77.48,-69.36,43.11,4.12
Honiara,75,SB,1561677156,74,-9.43,159.96,86.0,8.05
Hualmay,17,PE,1561677156,86,-11.1,-77.61,63.14,16.73
Port Lincoln,58,AU,1561677156,65,-34.72,135.86,61.9,27.36
Langsa,19,ID,1561677157,91,4.47,97.97,68.22,2.89
Thompson,75,CA,1561677157,35,55.74,-97.86,71.6,4.7
Ishigaki,40,JP,1561677157,94,24.34,124.16,82.4,12.75
Mount Gambier,40,AU,1561677158,62,-37.83,140.78,57.2,17.22
Ngaoundere,100,CM,1561677158,96,7.32,13.58,64.69,2.62
Borogontsy,0,RU,1561677158,35,62.67,131.17,77.65,4.61
Nikolskoye,90,RU,1561677159,93,59.7,30.79,57.2,11.18
Rantepao,60,ID,1561677159,92,-2.97,119.9,64.1,2.55
Yellowknife,40,CA,1561677159,24,62.45,-114.38,62.6,10.29
Jasper,1,US,1561677160,100,33.83,-87.28,75.2,3.78
Carroll,0,AU,1561677160,76,-30.99,150.44,53.6,6.93
Chimbarongo,90,CL,1561677160,76,-34.71,-71.04,51.8,5.82
Ouadda,71,CF,1561677161,98,8.07,22.4,68.76,3.96
Provideniya,90,RU,1561677161,87,64.42,-173.23,51.8,2.24
Kodiak,1,US,1561677161,62,39.95,-94.76,89.6,14.99
Pevek,100,RU,1561677162,95,69.7,170.27,34.63,11.72
Kahului,20,US,1561677016,55,20.89,-156.47,87.8,6.93
Winnemucca,1,US,1561677162,12,40.97,-117.74,75.99,13.87
Georgetown,75,GY,1561677038,88,6.8,-58.16,78.8,6.93
Hamilton,40,CA,1561677002,35,43.26,-79.87,84.99,3.36
Cherskiy,100,RU,1561677140,79,68.75,161.3,49.72,11.7
Tucumcari,1,US,1561677163,19,35.17,-103.73,95.0,14.99
Tiksi,94,RU,1561677164,73,71.64,128.87,45.38,11.21
Maceio,40,BR,1561677164,78,-9.67,-35.74,73.4,2.24
Felipe Carrillo Puerto,2,MX,1561677164,45,19.58,-88.05,88.56,6.78
Buchanan,75,LR,1561677164,94,5.88,-10.05,77.0,11.1
Mumford,96,GH,1561677165,95,5.26,-0.76,72.63,4.32
Moose Factory,40,CA,1561677165,41,51.26,-80.61,75.2,10.29
Ayan,0,IR,1561677166,82,38.23,44.7,53.78,3.04
Athabasca,96,CA,1561677166,53,54.72,-113.29,67.23,8.01
Mahebourg,20,MU,1561676919,78,-20.41,57.7,73.4,11.41
Trinidad,75,BO,1561677167,88,-14.83,-64.9,69.8,2.8
Mkuranga,0,TZ,1561677167,96,-7.12,39.21,65.86,4.23
Kawalu,79,ID,1561677167,90,-7.38,108.21,66.78,3.24
Maine-Soroa,83,NE,1561677168,41,13.21,12.02,88.87,7.61
Caledonia,90,US,1561677079,83,42.81,-87.92,88.0,13.87
Hervey Bay,40,AU,1561677168,87,-25.3,152.85,71.01,8.05
Miranda,67,BR,1561677169,86,-20.24,-56.38,67.5,1.83
Havoysund,75,NO,1561677169,80,71.0,24.66,41.0,35.57
Nicoya,75,CR,1561677169,66,10.15,-85.45,84.2,16.11
Coromandel,18,BR,1561677170,59,-18.47,-47.2,68.13,5.17
Namuac,99,PH,1561677170,82,18.61,121.17,78.1,4.81
Uchaly,100,RU,1561677171,99,54.32,59.38,46.93,4.43
Bethel,40,US,1561677144,60,60.79,-161.76,71.6,3.36
Vardo,75,US,1561677172,65,39.62,-77.74,87.8,4.7
Zambezi,0,ZM,1561677172,53,-13.55,23.12,55.15,4.25
Harindanga,40,IN,1561677172,84,22.04,88.32,86.0,11.41
Rio Grande,0,BR,1561677173,100,-32.03,-52.1,53.6,6.93
Owando,83,CG,1561677173,73,-0.49,15.91,74.3,1.21
Trincomalee,72,LK,1561677173,72,8.58,81.23,79.81,10.83
Champerico,75,MX,1561677174,58,16.38,-93.6,86.0,14.99
Kavaratti,44,IN,1561677174,75,10.57,72.64,83.2,16.35
Songjianghe,76,CN,1561677174,53,42.18,127.48,75.76,3.71
Mabaruma,65,GY,1561677175,98,8.2,-59.78,73.85,2.59
Kupino,32,RU,1561677175,88,54.36,77.31,49.25,8.66
Soller,0,DE,1561677175,67,50.73,6.56,64.99,6.93
Nanakuli,75,US,1561677176,88,21.39,-158.15,84.0,10.29
Sinnamary,99,GF,1561677176,81,5.38,-52.96,81.13,16.28
Najran,0,SA,1561677176,13,17.54,44.22,89.6,3.36
Westport,20,US,1561677176,30,41.14,-73.36,89.01,6.93
Cap Malheureux,20,MU,1561677177,78,-19.98,57.61,73.4,11.41
Katsuura,75,JP,1561677177,100,33.93,134.5,77.0,2.24
Tadine,100,NC,1561677177,86,-21.55,167.88,71.24,14.54
Lompoc,1,US,1561677178,60,34.64,-120.46,77.0,16.11
Lotoshino,100,RU,1561677178,99,56.23,35.64,55.44,6.06
Sur,0,OM,1561677179,63,22.57,59.53,84.85,14.67
Batabano,40,CU,1561677179,55,22.72,-82.29,89.6,13.87
Juneau,20,US,1561677179,30,58.3,-134.42,80.6,18.34
Palizada,20,MX,1561677180,70,18.25,-92.09,87.8,11.41
Denpasar,20,ID,1561677056,88,-8.65,115.22,73.4,2.24
Kapuskasing,75,CA,1561677180,44,49.42,-82.43,78.8,11.41
Itarema,1,BR,1561677181,85,-2.92,-39.92,76.0,6.6
Tuatapere,64,NZ,1561677181,82,-46.13,167.69,48.0,5.99
Komsomolskiy,95,RU,1561677181,80,67.55,63.78,50.69,5.82
Ghanzi,16,BW,1561677181,40,-21.7,21.65,57.19,10.22
Svetlogorsk,75,RU,1561677182,76,53.14,59.15,53.6,2.24
Carmen,90,PH,1561677070,94,7.36,125.71,78.8,3.36
Half Moon Bay,1,US,1561677182,46,37.46,-122.43,73.4,14.99
Laguna,40,BZ,1561677182,66,16.17,-88.94,89.6,9.17
Shingu,75,JP,1561677183,88,33.72,135.99,77.0,4.7
Touros,75,BR,1561677183,94,-5.2,-35.46,77.0,4.7
Ponta Pora,0,BR,1561676905,88,-22.54,-55.73,66.2,13.87
Saint-Augustin,75,CA,1561677184,54,45.63,-73.98,82.4,10.29
Bartica,75,GY,1561677184,94,6.41,-58.62,78.8,4.7
Soyo,0,AO,1561677184,82,-6.13,12.37,72.83,14.03
Kudahuvadhoo,17,MV,1561677185,70,2.67,72.89,83.47,7.02
Manicore,1,BR,1561677185,71,-5.81,-61.3,77.81,1.9
Fairbanks,90,US,1561677092,37,64.84,-147.72,73.99,2.08
Wao,87,PH,1561677186,67,7.64,124.73,76.5,2.77
Asosa,84,ET,1561677186,89,10.07,34.53,65.0,3.78
Yumen,1,CN,1561677186,33,40.29,97.04,68.6,10.94
Impfondo,94,CD,1561677187,92,1.62,18.06,71.44,1.32
Zyryanka,85,RU,1561677187,34,65.73,150.89,63.18,21.34
Aloleng,97,PH,1561677187,72,16.13,119.78,84.47,13.71
Ripky,33,UA,1561677188,79,51.8,31.09,57.8,12.73
Saint Anthony,20,US,1561677188,24,43.97,-111.68,80.6,11.41
Yetkul,75,RU,1561677188,100,54.83,61.59,51.8,4.47
Cap-aux-Meules,90,CA,1561677189,93,47.38,-61.86,51.8,5.82
Balaghat,98,IN,1561677189,82,21.81,80.19,78.32,4.9
Pacific Grove,1,US,1561677189,63,36.62,-121.92,78.01,10.29
Calvinia,13,ZA,1561677190,95,-31.47,19.78,40.28,5.53
Sambava,0,MG,1561677190,89,-14.27,50.17,67.0,3.58
Kalemie,5,CD,1561677190,57,-5.95,29.2,64.87,1.68
Kavieng,100,PG,1561677162,76,-2.57,150.8,84.06,14.61
Yar-Sale,71,RU,1561677191,60,66.83,70.83,50.0,7.7
Phonhong,100,LA,1561677192,97,18.5,102.42,73.1,0.43
Ambon,0,FR,1561677184,78,47.55,-2.56,84.0,11.41
Nouadhibou,0,MR,1561677192,64,20.93,-17.03,71.6,20.8
Nanortalik,100,GL,1561677193,98,60.14,-45.24,38.11,3.4
Plouzane,5,FR,1561677193,88,48.38,-4.62,73.4,8.05
Milos,0,GR,1561677193,69,36.75,24.43,78.7,17.98
Almaznyy,0,RU,1561677193,82,48.03,40.04,68.0,8.95
Omboue,1,GA,1561677194,81,-1.57,9.26,74.65,15.97
Pisco,90,PE,1561677194,30,-13.71,-76.2,71.6,6.93
Hovd,75,NO,1561677194,100,63.83,10.7,51.01,16.11
Hare Bay,75,CA,1561677195,55,48.86,-53.99,66.2,8.05
Erdenet,100,MN,1561677195,95,49.03,104.04,47.5,10.18
Carahue,75,CL,1561677195,93,-38.71,-73.16,50.0,8.05
Polyarnyy,0,RU,1561677196,100,69.2,33.45,33.8,4.47
Manaure,0,CO,1561677196,66,11.78,-72.45,86.0,11.41
Mahibadhoo,21,MV,1561677196,74,3.78,72.97,83.5,7.27
Dogondoutchi,0,NE,1561677196,38,13.64,4.03,92.36,10.36
Songea,0,TZ,1561677197,86,-10.68,35.65,53.51,2.48
Wanning,0,AT,1561677197,40,48.64,13.53,69.8,2.24
Itoman,40,JP,1561677197,88,26.12,127.67,82.4,9.17
Tutoia,0,BR,1561677198,83,-2.76,-42.27,82.4,8.05
Medveditskiy,76,RU,1561677198,64,50.79,44.71,62.44,9.4
Sechura,13,PE,1561677198,86,-5.56,-80.82,66.01,14.05
Nelson Bay,20,AU,1561677198,93,-32.72,152.14,61.0,1.12
Camacha,20,PT,1561677199,72,33.08,-16.33,66.2,9.17
Lieksa,63,FI,1561677199,95,63.32,30.02,45.9,7.72
Lima,90,PE,1561677199,72,-12.06,-77.04,66.2,6.93
Hobyo,84,SO,1561677200,76,5.35,48.53,76.0,22.95
Udalguri,90,IN,1561677200,97,26.75,92.1,65.39,1.86
Adrar,0,DZ,1561677200,7,27.87,-0.29,98.6,10.29
Guerrero Negro,0,MX,1561677200,84,27.97,-114.04,64.62,17.31
Toora-Khem,18,RU,1561677201,81,52.47,96.11,55.13,2.46
Anadyr,40,RU,1561677201,76,64.73,177.51,51.8,17.9
Nieuwpoort,20,BE,1561677202,82,51.13,2.75,63.0,12.75
Tricase,5,IT,1561677202,78,39.93,18.36,80.6,11.41
Les Cayes,100,HT,1561677202,78,18.19,-73.75,81.92,15.93
Samarai,77,PG,1561677202,90,-10.62,150.67,78.21,7.58
Wewak,100,PG,1561677203,79,-3.55,143.63,81.11,2.8
Weligama,97,LK,1561677203,78,5.97,80.42,82.84,15.3
Vysokogornyy,100,RU,1561677203,41,50.1,139.13,61.85,3.85
Samarinda,72,ID,1561677204,90,-0.5,117.14,77.72,5.21
Klaipeda,0,LT,1561677070,87,55.72,21.12,53.6,4.7
Ituporanga,64,BR,1561677204,97,-27.41,-49.6,60.01,5.01
Neuruppin,0,DE,1561677205,67,52.92,12.81,64.0,6.93
Luderitz,0,NA,1561677205,93,-26.65,15.16,50.0,4.7
Bonnyville,75,CA,1561677205,38,54.27,-110.74,73.4,9.17
Santa Cecilia,75,CR,1561676932,61,9.85,-84.31,78.8,9.17
Anloga,93,GH,1561677206,90,5.79,0.9,74.92,8.1
Bathsheba,40,BB,1561677191,74,13.22,-59.52,82.4,19.46
Lagoa,0,PT,1561677206,56,37.14,-8.45,69.8,11.41
Nangka,75,MY,1561677207,88,6.78,116.79,75.2,9.17
Hazorasp,0,UZ,1561677207,43,41.32,61.08,73.4,4.7
Waddan,0,LY,1561677207,48,29.16,16.14,80.71,15.88
Faya,0,SA,1561677208,9,18.39,42.45,77.0,3.36
Ambilobe,0,MG,1561677208,91,-13.19,49.05,69.89,2.95
Cururupu,0,BR,1561677208,96,-1.82,-44.87,74.02,2.89
Rosarito,40,CO,1561677209,68,4.91,-75.23,87.8,8.05
Floro,73,NO,1561677209,76,61.6,5.03,50.0,6.93
Sawakin,43,SD,1561677209,15,19.1,37.33,87.46,5.64
Los Llanos de Aridane,75,ES,1561677210,73,28.66,-17.92,71.6,11.41
Chunoyar,0,RU,1561677210,47,57.45,97.32,71.5,3.31
Kondinskoye,98,RU,1561677210,72,59.65,67.41,49.68,1.97
Polczyn-Zdroj,17,PL,1561677211,81,53.76,16.1,64.99,8.1
Ust-Maya,36,RU,1561677211,38,60.42,134.54,74.36,9.24
Kozhva,56,RU,1561677211,65,65.11,57.05,52.15,4.72
Ranfurly,99,CA,1561677212,75,53.41,-111.68,66.85,12.97
Ozu,75,JP,1561677212,88,33.51,132.54,77.0,1.12
Sitka,12,US,1561677213,47,37.17,-99.65,91.99,17.0
Mandera,47,ET,1561677213,65,3.94,41.86,77.13,20.2
Dafeng,79,CN,1561677213,75,33.2,120.46,80.01,5.68
Whithorn,40,JM,1561677214,74,18.26,-78.04,84.0,3.36
Kungurtug,12,RU,1561677214,86,50.6,97.53,49.14,1.63
Xingyi,100,CN,1561677214,93,24.19,102.82,63.7,3.96
Gat,88,SN,1561677215,83,14.69,-16.54,77.0,5.82
Tasiilaq,100,GL,1561677215,93,65.61,-37.64,44.6,5.82
Walvis Bay,3,NA,1561677215,77,-22.95,14.51,59.0,6.93
Rome,0,IT,1561676995,53,41.89,12.48,80.01,4.7
Batemans Bay,17,AU,1561677216,86,-35.71,150.18,53.01,2.91
Iqaluit,40,CA,1561677216,62,63.75,-68.52,51.8,8.05
Sainte-Maxime,0,FR,1561677216,73,43.31,6.64,82.4,3.36
Falam,100,MM,1561677217,95,22.91,93.68,66.6,2.24
Orasac,20,RS,1561677217,78,43.06,22.07,71.6,8.05
Birjand,0,IR,1561677217,20,32.86,59.22,66.2,4.7
Braco do Norte,0,BR,1561677217,97,-28.27,-49.17,53.01,5.01
Cascais,0,PT,1561677208,82,38.7,-9.42,66.2,10.29
Karaton,20,ID,1561677218,74,-6.34,106.1,78.8,3.36
Puerto Narino,75,CO,1561677218,88,-3.77,-70.38,82.4,4.7
Port Hardy,75,CA,1561677218,82,50.7,-127.42,57.2,6.93
Smolenka,0,PL,1561677219,99,54.15,22.76,55.0,9.93
Norilsk,75,RU,1561677219,81,69.35,88.2,44.6,8.95
Sola,97,TZ,1561677219,74,-3.17,33.8,65.07,3.44
Mehamn,85,NO,1561677220,86,71.03,27.85,39.94,23.31
Hasaki,75,JP,1561677220,94,35.73,140.83,79.0,2.24
Huron,1,US,1561677220,62,44.36,-98.21,87.8,9.17
Saurimo,0,AO,1561677221,39,-9.66,20.4,60.71,4.99
Sao Desiderio,0,BR,1561677221,50,-12.36,-44.97,66.65,5.35
Codrington,90,AU,1561677221,93,-28.95,153.24,59.0,7.72
Tsogni,1,GA,1561677222,82,-2.79,10.1,73.8,15.26
Narsaq,61,GL,1561677200,66,60.91,-46.05,53.6,6.93
Kajaani,0,FI,1561677223,66,64.22,27.73,51.8,8.05
Cockburn Town,79,TC,1561677024,80,21.46,-71.14,82.4,21.85
Yishui,83,CN,1561677223,73,35.78,118.63,76.28,3.62
Baghdad,0,IQ,1561677072,21,33.3,44.38,91.4,6.93
Linjiang,94,CN,1561677224,61,41.81,126.91,70.63,3.71
Melville,90,CA,1561677224,33,50.93,-102.81,77.0,2.24
Port-Gentil,20,GA,1561677224,88,-0.72,8.78,75.2,4.7
Beaverlodge,75,CA,1561677225,63,55.21,-119.43,66.2,20.8
Hay River,40,CA,1561677225,44,60.82,-115.79,57.2,9.17
Goderich,0,CA,1561677225,49,43.74,-81.71,80.01,8.99
Altay,80,CN,1561677225,53,47.83,88.13,59.83,3.58
Evensk,100,RU,1561677226,82,61.92,159.24,52.52,2.35
Meulaboh,15,ID,1561677226,78,4.14,96.13,80.84,7.9
Beloha,3,MG,1561677226,89,-25.17,45.06,66.06,9.4
Port Hedland,40,AU,1561677227,100,-20.31,118.58,57.2,3.36
Acapulco,40,MX,1561677227,70,16.86,-99.88,89.6,11.41
De Aar,0,ZA,1561677227,42,-30.65,24.01,48.1,8.57
Labuhan,14,ID,1561677228,79,-2.54,115.51,77.2,1.43
Santona,22,ES,1561677228,77,43.44,-3.46,68.0,9.17
Mariental,40,BR,1561677228,100,-25.72,-49.65,63.0,5.82
Nargana,100,PA,1561677228,87,9.44,-78.59,81.09,13.18
Hailey,5,US,1561677229,21,43.52,-114.32,71.6,4.7
Berlevag,74,NO,1561676983,83,70.86,29.09,41.8,22.84
Dandong,100,CN,1561677229,58,40.12,124.37,74.36,5.95
Grand-Lahou,87,CI,1561677230,94,5.24,-5.0,73.17,2.68
Spasskoye,98,RU,1561677230,94,55.86,45.7,46.58,13.35
Kalat,2,PK,1561677230,20,29.03,66.58,63.27,2.35
Akdepe,0,TM,1561677230,33,42.05,59.39,80.6,4.7
Yankton,20,US,1561677063,55,42.87,-97.4,89.6,12.75
Rawson,40,AR,1561677231,81,-43.3,-65.11,42.8,16.11
Baicheng,100,CN,1561677232,93,45.61,122.87,57.0,3.0
Padang,64,ID,1561677232,73,-0.92,100.36,82.21,4.47
Whitianga,15,NZ,1561677232,78,-36.83,175.7,60.01,1.99
Sal Rei,20,CV,1561677233,78,16.18,-22.92,75.2,19.46
Longyearbyen,75,NO,1561677233,69,78.22,15.63,35.6,16.11
Arona,0,IT,1561677233,65,45.76,8.56,87.01,9.17
Kupang,20,ID,1561677233,68,-10.16,123.6,69.8,8.05
Alberton,0,ZA,1561677234,75,-26.25,28.13,48.99,5.35
Vanimo,100,PG,1561677234,77,-2.67,141.3,82.01,6.71
Takoradi,83,GH,1561677235,94,4.89,-1.75,73.17,4.09
Uyar,0,RU,1561677235,71,55.81,94.33,68.13,0.76
Esqueda,64,MX,1561677235,25,30.72,-109.59,84.83,4.59
Marawi,95,PH,1561677236,86,8.0,124.29,77.0,3.0
Yantal,0,RU,1561677236,53,56.85,105.25,68.33,5.75
Alice Springs,0,AU,1561677236,56,-23.7,133.88,41.0,2.24
Yerbogachen,6,RU,1561677237,46,61.28,108.01,73.55,4.03
Ternate,75,PH,1561677237,88,14.29,120.72,80.01,4.7
Presidencia Roque Saenz Pena,38,AR,1561677237,69,-26.79,-60.44,64.55,9.22
Avera,40,US,1561677238,43,33.19,-82.53,93.2,6.93
Fukue,75,JP,1561677238,88,35.03,136.69,80.01,6.93
Belmonte,0,PT,1561677238,83,40.36,-7.35,53.87,2.28
Ambatondrazaka,77,MG,1561677239,89,-17.82,48.43,59.94,7.87
Davila,75,PH,1561677239,94,18.47,120.58,78.8,9.17
Russell,1,US,1561677240,34,38.9,-98.86,99.0,28.86
Teeli,2,RU,1561677240,47,51.01,90.2,60.5,1.19
Aksarayskiy,0,RU,1561677240,78,46.79,48.01,73.0,4.47
La Asuncion,34,AR,1561677240,29,-26.05,-65.39,52.43,3.11
Lawrenceburg,20,US,1561677241,100,35.24,-87.33,75.99,1.12
Zhaoyang,85,CN,1561677241,67,42.68,126.03,73.46,3.76
Tres Arroyos,100,AR,1561677241,58,-38.38,-60.28,48.94,17.69
Mineiros,0,BR,1561677242,57,-17.57,-52.55,68.33,5.3
Geraldton,40,CA,1561677242,38,49.72,-86.95,77.0,10.29
Taltal,54,CL,1561677242,88,-25.41,-70.49,50.45,2.53
Koumac,81,NC,1561677243,83,-20.56,164.28,72.02,18.84
Faanui,67,PF,1561677243,81,-16.48,-151.75,79.06,13.73
Tigil,41,RU,1561677243,48,57.8,158.67,61.88,7.25
Orbetello,0,IT,1561677243,73,42.44,11.21,81.0,3.36
Laibin,85,CN,1561677244,90,23.74,109.23,80.06,7.02
Bima,5,ID,1561677244,81,-8.45,118.73,70.0,2.48
Guarapari,0,BR,1561677244,83,-20.67,-40.5,77.0,11.41
Salalah,75,OM,1561677245,88,17.01,54.1,82.4,10.29
Marzuq,53,YE,1561677245,34,14.4,46.47,79.61,4.5
Vila,0,IT,1561677245,65,45.18,8.4,87.01,9.17
Prainha,76,BR,1561677246,93,-1.8,-53.48,75.4,2.17
Senneterre,75,CA,1561677246,68,48.39,-77.24,69.8,19.46
Simao,100,CN,1561677246,88,22.76,100.79,69.48,1.48
Lere,90,TD,1561677247,88,9.66,14.23,73.48,2.82
Zarate,97,MX,1561677247,78,18.92,-101.44,74.86,1.54
Mandan,1,US,1561677247,54,46.83,-100.89,82.99,13.87
Waitati,50,NZ,1561677248,56,-45.75,170.57,57.0,3.0
Kulhudhuffushi,17,MV,1561677248,74,6.62,73.07,83.23,10.92
Tromso,100,NO,1561677207,80,69.65,18.96,42.8,27.51
Neiafu,40,TO,1561677249,74,-18.65,-173.98,78.8,6.93
Along,100,IN,1561677249,99,28.17,94.8,60.25,0.81
Henties Bay,7,NA,1561677249,82,-22.12,14.28,57.0,1.01
Kez,18,RU,1561677250,96,57.9,53.72,45.95,6.69
Blackwater,0,GB,1561677250,82,51.33,-0.78,60.01,16.11
Bubaque,29,GW,1561677250,82,11.28,-15.83,81.11,16.06
Portland,1,US,1561677096,77,43.66,-70.25,75.0,8.05
Beyneu,2,KZ,1561677251,30,45.32,55.19,72.02,4.07
Leh,76,IN,1561677168,59,34.16,77.58,28.01,3.98
Hillsboro,1,US,1561677058,55,39.16,-89.49,87.01,5.82
Karratha,0,AU,1561677252,62,-20.74,116.85,66.82,17.9
Vitim,1,RU,1561677252,43,59.44,112.57,73.49,7.56
San Antonio,0,CL,1561677252,93,-33.58,-71.61,51.8,14.61
Tshikapa,11,CD,1561677253,44,-6.42,20.79,71.39,1.99
Hohhot,57,CN,1561677068,93,40.81,111.65,59.0,4.47
Vyazma,100,RU,1561677253,96,55.21,34.3,55.28,12.3
Dongsheng,97,CN,1561677253,86,29.72,112.52,82.22,9.69
Cabedelo,75,BR,1561677254,78,-6.97,-34.84,77.0,9.17
Brewster,90,US,1561677254,93,41.76,-70.08,73.0,8.05
Grindavik,90,IS,1561677254,100,63.84,-22.43,55.99,17.22
Verkhoyansk,57,RU,1561677254,26,67.55,133.39,79.31,13.11
Cloquet,40,US,1561677046,83,46.72,-92.46,69.8,4.7
Show Low,1,US,1561677049,14,34.25,-110.03,93.99,19.46
Talara,0,PE,1561677255,290,-4.58,-81.27,62.6,13.87
Mocorito,40,MX,1561677256,32,25.48,-107.92,102.0,5.01
Mahajanga,20,MG,1561677256,73,-15.72,46.32,73.4,4.7
Erzin,0,TR,1561677256,74,36.95,36.2,81.0,20.8
Narasannapeta,100,IN,1561677257,75,18.42,84.04,83.79,3.47
Rimbey,90,CA,1561677257,93,52.64,-114.24,55.4,11.41
Saint-Pierre,0,FR,1561677257,82,48.95,4.24,78.8,9.17
Ahipara,12,NZ,1561677257,72,-35.17,173.16,57.89,12.01
Durango,75,MX,1561677258,15,24.02,-104.67,86.0,14.99
Limon,1,US,1561677020,15,39.26,-103.69,96.01,6.93
Comodoro Rivadavia,0,AR,1561677259,41,-45.87,-67.48,32.0,4.7
Wexford,40,US,1561677259,78,40.63,-80.06,79.0,3.36
Porto-Vecchio,90,FR,1561677259,94,41.59,9.28,80.6,3.36
Redwater,20,CA,1561677259,68,53.95,-113.11,69.01,11.41
Maues,53,BR,1561677260,72,-3.38,-57.72,78.62,2.21
Paamiut,3,GL,1561677260,89,61.99,-49.67,40.77,12.82
Suwannaphum,20,TH,1561677260,69,15.61,103.81,87.01,9.17
Beira,0,ES,1561677261,93,43.2,-8.36,64.0,2.24
Hami,0,CN,1561677226,17,42.84,93.51,76.75,10.38
Arlit,95,NE,1561677173,18,18.74,7.39,95.51,2.06
Mazagao,90,BR,1561677261,89,-0.12,-51.29,84.2,9.17
Sangar,0,RU,1561677262,40,63.92,127.47,77.98,5.61
Medeiros Neto,6,BR,1561677262,88,-17.37,-40.22,67.91,10.51
Wellington,0,NZ,1561677186,76,-41.29,174.78,51.01,14.99
Ucluelet,90,CA,1561677262,93,48.94,-125.55,57.0,4.7
Tumen,79,CN,1561677263,71,42.97,129.84,66.58,5.23
Kuito,0,AO,1561677263,37,-12.38,16.94,54.02,2.86
Oviedo,75,ES,1561677264,77,43.36,-5.84,68.0,11.41
Ambanja,32,MG,1561677264,73,-13.68,48.45,76.82,6.31
Bavly,63,RU,1561677264,97,54.4,53.24,44.46,2.42
Gladstone,15,AU,1561677264,64,-23.84,151.26,68.0,12.75
Kayes,18,ML,1561677265,50,14.44,-11.44,91.78,22.88
Nieuw Amsterdam,40,SR,1561677265,83,5.88,-55.08,80.6,4.7
Vanino,100,RU,1561677266,100,53.93,40.55,63.0,3.0
La Rioja,0,AR,1561677266,44,-29.41,-66.86,46.22,2.21
Ponta Delgada,20,PT,1561677187,77,37.73,-25.67,62.6,3.36
Ler,75,NO,1561677267,100,63.2,10.3,51.01,16.11
Nyurba,100,RU,1561677267,63,63.29,118.35,70.04,3.83
Mao,75,DO,1561677267,94,19.55,-71.08,82.0,12.75
Carauari,5,BR,1561677267,89,-4.88,-66.9,75.47,0.65
Eyl,62,SO,1561677268,56,7.98,49.82,77.92,29.51
Suhbaatar,100,MN,1561677268,84,50.23,106.21,57.13,10.18
Pasni,32,PK,1561677268,95,25.26,63.48,78.82,2.59
Ulaanbaatar,75,MN,1561677269,87,47.92,106.92,48.2,6.71
Tukums,75,LV,1561677269,72,56.97,23.17,59.0,13.87
Luis Correia,0,BR,1561677269,83,-2.88,-41.67,82.4,8.05
Saint-Joseph,0,FR,1561677269,73,43.56,6.97,87.8,3.36
Semenivka,61,UA,1561677270,84,52.18,32.58,58.55,14.79
Black River,40,JM,1561677262,74,18.03,-77.85,84.0,3.36
Sakaiminato,75,JP,1561677270,94,35.55,133.23,77.0,13.87
Abnub,0,EG,1561677271,23,27.27,31.15,87.8,9.17
Tessalit,0,ML,1561677271,8,20.2,1.01,92.11,9.08
Awjilah,0,LY,1561677271,53,29.14,21.3,80.46,12.28
Magistralnyy,27,RU,1561677272,53,56.17,107.45,67.54,6.64
Babushkin,76,RU,1561677272,97,51.72,105.86,44.96,3.22
Banda Aceh,65,ID,1561677272,79,5.56,95.32,83.21,17.81
Lenoir,1,US,1561677147,40,35.91,-81.54,90.0,1.63
Lakatoro,100,VU,1561677273,89,-16.11,167.42,76.05,16.4
Ahuimanu,75,US,1561677273,88,21.44,-157.84,84.0,10.29
Minusinsk,0,RU,1561677273,93,53.7,91.7,57.2,3.09
Puerto El Triunfo,20,SV,1561677274,59,13.27,-88.55,91.4,11.41
Ugoofaaru,19,MV,1561677274,74,5.67,73.0,83.29,8.63
Dharchula,49,IN,1561677274,67,29.85,80.53,53.62,5.26
Usinsk,71,RU,1561677275,67,66.0,57.56,53.37,6.44
Lac du Bonnet,51,CA,1561677275,29,50.25,-96.06,80.01,7.49
Cayenne,0,GF,1561677275,83,4.94,-52.33,80.6,3.36
Balaipungut,100,ID,1561677276,97,1.11,101.31,74.36,2.66
Kuloy,98,RU,1561677276,85,61.03,42.49,46.64,4.47
Azua,40,DO,1561677190,79,18.45,-70.73,84.2,11.41
Pontianak,100,ID,1561677276,82,-0.02,109.34,81.04,17.92
Prince George,75,CA,1561677277,59,53.92,-122.75,71.01,13.87
Amsterdam,75,NL,1561677231,77,52.37,4.89,60.01,10.29
Mingshui,91,CN,1561677277,84,22.81,109.89,83.18,8.25
Phalombe,0,MW,1561677277,86,-15.81,35.65,54.2,3.22
Senador Jose Porfirio,100,BR,1561677278,72,-2.59,-51.95,79.83,4.94
Lavrentiya,100,RU,1561677267,94,65.58,-170.99,48.19,6.44
Luanda,0,AO,1561677278,88,-8.83,13.24,68.0,5.82
Bandarbeyla,100,SO,1561677279,58,9.49,50.81,78.97,29.17
Bull Savanna,100,JM,1561677279,80,17.89,-77.59,83.56,10.56
Palu,100,ID,1561677279,85,-0.9,119.87,77.65,1.99
Vigrestad,40,NO,1561677280,87,58.57,5.7,53.6,12.75
Broken Hill,40,AU,1561677280,62,-31.97,141.45,55.4,12.75
Inhambane,0,MZ,1561677280,95,-23.87,35.38,60.64,2.17
Asheboro,1,US,1561676994,55,35.71,-79.81,91.4,4.88
Tura,78,RU,1561677267,51,64.27,100.22,75.11,5.79
Aktau,0,KZ,1561677281,48,43.65,51.16,66.2,8.95
Lashio,100,MM,1561677281,99,22.93,97.75,71.12,0.78
Kachug,100,RU,1561677282,70,53.96,105.89,62.24,3.06
Kununurra,0,AU,1561677282,71,-15.77,128.74,51.8,6.17
Lucea,40,JM,1561677282,74,18.44,-78.17,84.0,3.36
Tucurui,98,BR,1561677282,71,-3.77,-49.67,76.1,2.46
Sobolevo,89,RU,1561677177,91,54.43,31.9,54.63,16.67
Ixtapa,75,MX,1561677242,52,20.71,-105.21,89.01,9.17
Khandyga,0,RU,1561677283,18,62.65,135.58,79.72,8.68
Verkhnevilyuysk,97,RU,1561677283,67,63.45,120.31,68.6,4.65
Tefe,20,BR,1561677284,94,-3.35,-64.71,80.6,2.59
Katiola,75,CI,1561677284,94,8.14,-5.1,75.2,9.17
Namatanai,63,PG,1561677284,75,-3.66,152.44,81.88,9.35
Salinas,1,US,1561677284,63,36.67,-121.66,78.01,10.29
Saint-Georges,7,CA,1561677285,57,46.12,-70.67,73.0,3.0
Dori,13,BF,1561677285,35,14.03,-0.03,91.24,11.39
Waterloo,100,SL,1561677063,83,8.34,-13.07,79.7,8.01
Karasjok,79,NO,1561677286,70,69.47,25.52,42.8,24.16
Severo-Yeniseyskiy,7,RU,1561677286,51,60.37,93.04,71.91,2.39
Iklad,0,HU,1561677286,35,47.66,19.44,75.99,8.05
Oruro,0,BO,1561677286,25,-17.97,-67.11,42.03,7.65
Havelock,1,US,1561677287,43,34.88,-76.9,89.01,10.29
Midland,40,US,1561677194,33,32.0,-102.08,91.99,12.75
Camargo,48,MX,1561677288,15,27.69,-105.17,93.87,12.1
Ingham,100,AU,1561677288,94,-18.65,146.16,67.61,4.45
Sao Miguel do Araguaia,22,BR,1561677289,46,-13.28,-50.16,75.28,3.53
Vung Tau,73,VN,1561677123,86,10.35,107.08,80.24,13.69
Khurja,0,IN,1561677289,29,28.25,77.85,94.82,8.88
Byron Bay,90,AU,1561677290,93,-28.65,153.62,62.01,5.3
Chara,0,GR,1561677290,60,39.42,22.43,77.0,3.13
Coolum Beach,5,AU,1561677290,97,-26.53,153.09,62.01,1.01
Gamba,39,CN,1561677291,72,28.28,88.52,41.15,2.91
Rundu,0,NA,1561677291,41,-17.91,19.77,60.8,3.36
Hanting,90,CN,1561677291,71,30.92,118.55,82.42,4.05
Charters Towers,100,AU,1561677292,81,-20.07,146.27,65.23,16.31
Havre-Saint-Pierre,90,CA,1561677216,93,50.23,-63.6,53.6,10.29
Lydenburg,0,ZA,1561677292,93,-25.1,30.46,51.01,1.54
Zheleznodorozhnyy,75,RU,1561677293,93,55.75,38.0,59.0,6.71
Slave Lake,75,CA,1561677293,52,55.28,-114.77,69.8,16.11
Puerto Ayacucho,20,CO,1561677293,52,5.66,-67.63,89.6,5.82
Ca Mau,91,VN,1561677293,87,9.18,105.15,78.66,7.43
Gramada,0,RS,1561677294,77,42.4,21.69,69.8,3.47
Nevesinje,0,BA,1561677063,77,43.26,18.11,77.0,1.12
Caranavi,71,BO,1561677294,94,-15.83,-67.57,53.5,0.92
Sao Sebastiao,83,BR,1561677295,80,-3.15,-58.36,78.53,1.79
Dauphin,1,CA,1561677295,32,51.15,-100.04,80.6,5.82
Vilyuysk,93,RU,1561677295,57,63.75,121.63,72.61,5.59
Fort Nelson,90,CA,1561677295,62,58.81,-122.69,57.2,2.24
Bermejo,31,AR,1561677296,74,-22.73,-64.34,51.88,3.38
Puerto Leguizamo,63,CO,1561677296,97,-0.19,-74.78,73.62,2.89
Kihei,20,US,1561676973,55,20.76,-156.45,87.8,6.93
Novikovo,76,RU,1561677296,95,51.15,37.89,62.42,13.31
Alor Setar,75,MY,1561677297,94,6.12,100.37,77.0,2.24
Tamandare,42,BR,1561677297,85,-8.28,-70.75,73.4,1.19
Dhidhdhoo,69,MV,1561677297,73,6.88,73.1,83.45,12.08
Rocky Mountain House,100,CA,1561677122,96,52.38,-114.92,56.11,1.68
Bandrele,75,YT,1561677298,83,-12.91,45.19,78.8,13.87
Nyuzen,75,JP,1561677298,94,36.93,137.5,78.01,2.24
Soligalich,66,RU,1561677298,84,59.08,42.29,47.57,7.76
Peleduy,0,RU,1561677299,41,59.63,112.75,74.25,8.32
Dwarka,7,IN,1561677299,51,28.58,77.04,97.0,4.7
Sungaipenuh,94,ID,1561677299,88,-2.08,101.38,72.2,3.36
Gazanjyk,61,TM,1561677300,38,39.24,55.52,85.68,2.53
Garden City,1,US,1561677300,15,43.62,-116.24,81.0,5.82
Husavik,40,CA,1561677300,29,50.56,-96.99,82.0,5.91
Beruwala,100,LK,1561677301,79,6.48,79.98,82.67,16.2
Biberach,0,DE,1561677301,67,48.29,10.22,70.0,1.12
Bonavista,91,CA,1561677302,81,48.65,-53.11,46.99,3.0
Dumas,40,IN,1561677302,89,21.09,72.71,84.2,9.17
Tateyama,75,JP,1561677302,94,36.66,137.31,78.01,2.24
Kapit,100,MY,1561677303,91,2.02,112.94,71.48,2.89
Vila do Maio,40,CV,1561677303,78,15.13,-23.22,75.2,12.75
Alofi,75,NU,1561677233,69,-19.06,-169.92,78.8,18.34
Makinsk,97,KZ,1561677303,86,52.63,70.42,48.71,3.8
Emerald,41,AU,1561677144,87,-23.53,148.16,61.0,13.87
Agudos,0,BR,1561677304,73,-22.47,-48.99,75.2,5.82
Muravlenko,100,RU,1561677304,65,63.79,74.5,47.54,14.34
Camacupa,0,AO,1561677304,37,-12.02,17.48,54.79,1.07
Ä°zmit,0,TR,1561677305,100,40.76,29.93,70.0,1.5
Vuktyl,27,RU,1561677305,64,63.86,57.31,51.1,3.56
Lanxi,61,CN,1561677305,99,29.21,119.46,87.01,1.21
Tsaratanana,30,MG,1561677306,88,-16.8,47.65,61.92,6.51
Malanje,5,AO,1561677306,79,-9.54,16.35,57.47,2.15
Poiana Stampei,71,RO,1561677306,89,47.31,25.13,57.0,4.7
Ust-Tsilma,100,RU,1561677307,62,65.44,52.15,51.75,3.78
Thul,0,PK,1561677307,66,28.24,68.77,89.6,8.57
Gazojak,100,TM,1561677307,37,41.19,61.4,75.38,7.99
Vallenar,0,CL,1561677308,94,-28.58,-70.76,45.56,1.39
Rayagada,100,IN,1561677080,85,19.17,83.42,73.66,7.81
Abu Dhabi,5,AE,1561677154,55,24.47,54.37,93.2,2.24
Svetlaya,100,RU,1561677308,91,46.54,138.33,47.56,2.89
Chongwe,1,ZM,1561677308,71,-15.33,28.68,51.93,3.53
Yuli,98,CN,1561677309,96,24.82,106.77,75.24,2.89
Shaunavon,93,CA,1561677309,72,49.65,-108.41,68.63,19.22
Tuy Hoa,86,VN,1561677221,64,13.08,109.3,81.95,14.99
Ulaangom,100,MN,1561677310,35,49.98,92.07,67.99,2.3
Aguai,32,IT,1561677310,45,46.3,11.4,78.01,13.0
Zlitan,0,LY,1561677310,83,32.47,14.57,75.87,1.77
Susanville,1,US,1561677310,10,40.42,-120.65,71.6,23.04
Kedrovyy,0,RU,1561677311,93,56.17,91.82,59.0,2.24
Askarovo,75,RU,1561677311,76,53.34,58.51,53.6,2.24
Nouakchott,0,MR,1561677311,73,18.08,-15.98,77.0,16.11
Abong Mbang,95,CM,1561677312,98,3.98,13.18,66.53,2.53
Whitehorse,40,CA,1561677084,23,60.72,-135.06,75.0,10.29
Bon Accord,20,CA,1561677313,68,53.84,-113.41,69.01,11.41
Mountain Home,75,US,1561677313,14,43.13,-115.69,82.4,10.29
Channel-Port aux Basques,100,CA,1561677313,78,47.57,-59.14,50.33,6.2
Jardim,28,BR,1561677314,80,-21.48,-56.15,68.36,7.23
Port Blair,100,IN,1561677202,79,11.67,92.75,84.06,23.78
Bilma,80,NE,1561677314,13,18.69,12.92,91.98,8.23
Nipawin,1,CA,1561677314,47,53.36,-104.02,75.2,2.24
Matamoros,1,US,1561677315,62,25.87,-97.51,91.4,13.87
Kiama,20,AU,1561677315,100,-34.67,150.86,62.01,10.29
Biga,0,TR,1561677316,83,40.23,27.24,73.4,6.93
Isangel,90,VU,1561677211,94,-19.55,169.27,73.4,17.92
Kieta,25,PG,1561677178,70,-6.22,155.63,84.13,6.26
Tempio Pausania,90,IT,1561677316,94,40.9,9.1,77.0,3.36
Togur,99,RU,1561677317,91,58.36,82.83,55.46,4.72
Mayumba,6,GA,1561677317,82,-3.44,10.65,73.44,14.63
Montclair,1,US,1561677288,29,40.83,-74.21,90.0,5.82
Puerto Baquerizo Moreno,0,EC,1561677318,73,-0.9,-89.6,77.0,16.11
San Jeronimito,75,MX,1561677318,63,17.55,-101.33,91.4,5.82
Meadville,90,US,1561677318,57,41.64,-80.15,82.99,4.7
Plettenberg Bay,0,ZA,1561677318,19,-34.05,23.37,60.1,13.69
Chimoio,75,MZ,1561677211,87,-19.11,33.48,60.8,1.32
Traunreut,75,DE,1561677319,47,47.96,12.6,77.0,8.05
Kenai,1,US,1561677319,52,60.55,-151.26,78.01,6.93
Inirida,100,CO,1561677319,94,3.87,-67.92,75.65,2.24
Soeng Sang,79,TH,1561677320,59,14.43,102.46,84.99,7.36
Corinto,20,CO,1561677320,55,3.17,-76.26,86.0,10.29
Siteki,0,SZ,1561677321,70,-26.45,31.95,53.41,2.28
Bhinga,25,IN,1561677321,44,27.7,81.93,86.71,4.81
Dire,40,ET,1561677322,93,9.18,38.92,57.2,0.94
Zaoyang,94,CN,1561677322,85,32.12,112.76,77.67,2.82
Domanivka,73,UA,1561677322,90,47.63,30.98,62.08,11.16
George,0,MW,1561677323,76,-15.35,34.83,56.23,2.84
Revelstoke,90,CA,1561677323,93,50.99,-118.19,57.2,5.82
Wenling,34,CN,1561677323,88,28.38,121.38,84.0,1.99
Virginia Beach,1,US,1561677113,46,36.85,-75.98,91.4,6.93
Maymyo,40,MM,1561677324,74,22.03,96.47,80.6,11.41
Opuwo,0,NA,1561677324,83,-18.06,13.84,46.1,0.47
Kvareli,72,GE,1561677325,70,41.95,45.82,67.21,1.9
Powell River,90,CA,1561677325,82,49.84,-124.52,60.8,11.59
Ptuj,81,SI,1561677325,78,46.42,15.87,78.8,4.7
Bridlington,1,GB,1561677326,87,54.08,-0.19,55.99,4.7
Yuzhno-Sukhokumsk,4,RU,1561677326,50,44.66,45.65,76.82,8.3
Fare,61,PF,1561677326,80,-16.7,-151.02,78.55,13.11
Sarapul,41,RU,1561677326,95,56.48,53.82,50.0,3.71
Pocerski Pricinovic,0,RS,1561677327,88,44.72,19.71,78.01,10.29
Barra do Garcas,0,BR,1561677327,53,-15.89,-52.26,70.04,2.24
Srednekolymsk,100,RU,1561677327,40,67.46,153.71,59.11,15.03
Vao,35,EE,1561677328,59,59.1,26.19,58.27,15.5
Yendi,100,GH,1561677328,83,9.45,0.0,77.83,9.4
Mandalgovi,100,MN,1561677328,79,45.76,106.27,49.91,20.11
High Prairie,47,CA,1561677329,64,55.43,-116.48,69.41,9.64
Shenjiamen,72,CN,1561677329,91,29.96,122.3,75.06,11.25
Townsville,75,AU,1561677329,78,-19.26,146.82,72.0,10.29
Rosignano Marittimo,0,IT,1561677329,94,43.41,10.47,82.0,5.82
Xining,99,CN,1561677330,90,36.62,101.77,45.72,1.48
Lucapa,0,AO,1561677330,40,-8.42,20.74,64.78,3.47
Tanout,0,NE,1561677192,25,14.97,8.88,92.88,5.75
Luangwa,0,MZ,1561677331,78,-15.62,30.4,55.69,0.83
Xinxiang,100,CN,1561677331,81,35.3,113.88,68.81,1.81
Sulangan,100,PH,1561677331,69,11.14,123.72,83.16,4.12
Daitari,100,IN,1561677332,74,21.11,85.83,85.27,2.48
Kanadey,100,RU,1561677232,98,53.17,47.53,53.57,8.99
Muhos,0,FI,1561677332,43,64.81,26.0,55.4,12.75
Kosonsoy,20,UZ,1561677333,40,41.25,71.55,73.4,6.93
Norrtalje,11,SE,1561677333,81,59.76,18.7,55.99,5.82
Gravelbourg,94,CA,1561677333,59,49.88,-106.56,73.89,21.07
Kokopo,60,PG,1561677334,58,-4.34,152.27,86.31,2.8
Turukhansk,94,RU,1561677273,94,65.8,87.96,49.82,10.49
Ruteng,16,ID,1561677334,72,-8.61,120.46,71.73,5.26
Tautira,75,PF,1561677334,78,-17.73,-149.15,80.6,18.34
Taoudenni,3,ML,1561677335,9,22.68,-3.98,93.06,4.72
Selaphum,20,TH,1561677335,69,16.03,103.94,80.6,9.17
Sandy Bay,75,AU,1561677335,66,-42.9,147.33,57.0,9.17
Ratzeburg,75,DE,1561677336,76,53.7,10.77,57.99,9.17
Nabire,100,ID,1561677336,96,-3.36,135.5,72.72,3.74
Gayny,47,RU,1561677336,75,60.3,54.33,47.54,4.0
Port Macquarie,16,AU,1561677112,100,-31.43,152.91,63.0,4.7
Chernyshevskiy,39,RU,1561677337,40,63.01,112.47,78.08,2.55
Colwyn Bay,0,GB,1561677337,59,53.29,-3.71,64.4,10.29
Baiyin,23,CN,1561677337,100,36.55,104.13,50.0,9.48
Jiblah,100,YE,1561677338,53,13.92,44.15,74.43,1.63
Algiers,75,US,1561677338,74,29.94,-90.04,97.0,12.75
Tarko-Sale,39,RU,1561677305,78,64.92,77.78,46.99,3.0
Poronaysk,38,RU,1561677338,45,49.22,143.1,65.7,2.77
San Rafael,0,AR,1561677339,43,-34.61,-68.33,49.18,2.26
Lewistown,40,US,1561677339,62,40.39,-90.15,89.01,6.93
Tevaitoa,61,PF,1561677340,80,-16.78,-151.5,78.55,13.11
Lodja,93,CD,1561677340,91,-3.52,23.6,70.96,2.62
Perth,75,AU,1561677340,100,-31.95,115.86,46.4,8.05
Lamar,1,US,1561677340,15,38.09,-102.62,91.99,5.82
Trelew,40,AR,1561677259,81,-43.25,-65.31,42.8,16.11
Naze,89,NG,1561677341,98,5.43,7.07,71.69,2.73
Jutai,62,BR,1561677341,94,-1.71,-47.89,74.29,3.09
Oktyabrskiy,75,RU,1561677342,93,55.61,37.97,59.0,6.71
Ishimbay,100,RU,1561677342,93,53.45,56.04,53.21,9.13
Banepa,75,NP,1561677343,100,27.63,85.52,69.8,4.7
Saryg-Sep,0,RU,1561677343,84,51.49,95.55,55.39,3.31
Gewane,29,ET,1561677343,41,10.16,40.66,87.05,12.93
Sampit,43,ID,1561677343,98,-2.54,112.95,75.17,1.41
Kidal,0,ML,1561677344,33,18.44,1.41,87.3,9.46
Metro,81,ID,1561677344,91,-5.11,105.31,73.03,5.17
Rio Gallegos,20,AR,1561677344,92,-51.62,-69.22,26.6,11.41
Boende,100,CD,1561677345,92,-0.28,20.88,68.8,3.0
Foca,0,TR,1561677345,51,38.67,26.76,82.4,10.29
Moose Jaw,75,CA,1561677345,38,50.4,-105.54,78.01,17.22
Grand-Santi,100,GF,1561677346,95,4.27,-54.38,74.68,2.1
Ikongo,99,MG,1561677346,98,-21.88,47.44,58.66,5.23
Evanston,75,US,1561677255,45,42.04,-87.69,91.4,8.05
Shakhtinsk,75,KZ,1561677347,71,49.71,72.59,57.2,11.18
Demyanovo,11,RU,1561677347,94,60.35,47.08,45.97,4.92
Kruisfontein,0,ZA,1561677347,19,-34.0,24.73,55.03,11.01
Kindu,94,CD,1561677347,97,-2.95,25.92,69.26,1.77
Caramay,100,PH,1561677348,79,10.18,119.24,81.18,1.36
Kitgum,32,UG,1561677348,94,3.3,32.88,65.14,0.6
Taganak,75,PH,1561677349,94,6.08,118.3,75.2,2.24
Lokosovo,100,RU,1561677349,90,61.13,74.84,46.55,13.49
Tarauaca,31,BR,1561677349,91,-8.16,-70.77,73.64,1.9
San Andres,100,PH,1561677350,82,13.32,122.68,82.1,12.15
Mari-Turek,0,RU,1561677350,91,56.79,49.62,44.64,4.68
Chino Valley,1,US,1561677270,6,34.76,-112.45,93.99,12.75
Moron,100,HT,1561677350,81,18.56,-74.26,81.49,7.36
San Ramon,40,NI,1561677351,69,12.92,-85.84,77.0,13.87
Jiuquan,0,CN,1561677351,24,39.73,98.49,67.64,11.99
Blagoyevo,63,RU,1561677351,63,63.37,47.92,52.72,4.61
Wageningen,0,NL,1561677352,82,51.98,5.66,60.01,6.93
Fredericton,90,CA,1561677352,100,45.97,-66.65,60.8,2.24
Concarneau,0,FR,1561677352,83,47.88,-3.92,82.99,8.05
Kattivakkam,75,IN,1561677352,74,13.22,80.32,86.0,5.82
Nebbi,28,UG,1561677353,88,2.48,31.09,62.41,5.7
Bullhead City,5,US,1561677353,6,35.15,-114.57,104.0,18.34
Fallon,1,US,1561677353,31,46.84,-105.12,87.8,13.87
Nova Olimpia,1,BR,1561677354,52,-14.8,-57.29,76.45,3.58
San Joaquin,100,PH,1561677354,90,10.59,122.14,78.82,8.5
Xiongyue,100,CN,1561677354,80,40.18,122.12,70.34,12.84
Coos Bay,1,US,1561677320,72,43.37,-124.22,66.99,14.99
Zhanaozen,19,KZ,1561677355,26,43.35,52.85,73.01,10.6
Sept-Iles,90,CA,1561677342,87,50.2,-66.38,57.0,9.17
Buala,100,SB,1561677355,75,-8.15,159.59,83.03,9.08
Morondava,0,MG,1561677356,63,-20.3,44.28,76.23,8.46
Antofagasta,90,CL,1561677356,71,-23.65,-70.4,57.2,8.05
Abu Zabad,99,SD,1561677356,52,12.35,29.25,80.77,13.89
Cheboksary,0,RU,1561677356,93,56.13,47.24,48.2,6.71
High Level,75,CA,1561677357,56,58.52,-117.13,68.0,9.17
Laela,0,TZ,1561677357,75,-8.57,32.05,52.06,4.56
Pringsewu,74,ID,1561677357,93,-5.36,104.98,72.49,0.6
Harsin,0,IR,1561677358,15,34.27,47.59,80.6,6.93
Cabinda,0,AO,1561677358,81,-5.56,12.19,73.01,12.26
Sorland,85,NO,1561677358,76,67.67,12.69,46.62,16.11
Paramonga,57,PE,1561677359,90,-10.68,-77.82,61.7,14.94
Port Hueneme,40,US,1561677359,73,34.15,-119.2,81.0,5.82
Shunyi,100,CN,1561677359,78,40.13,116.65,78.01,8.95
Santiago,78,PH,1561677238,89,16.69,121.54,77.45,1.34
Kodinsk,0,RU,1561677360,51,58.6,99.18,70.49,6.15
Paita,0,PE,1561677360,290,-5.09,-81.11,62.6,13.87
Yenagoa,100,NG,1561677360,96,4.92,6.26,73.42,3.04
Tecoanapa,40,MX,1561677360,70,16.99,-99.26,89.6,11.41
Santa Cruz,12,BR,1561677233,86,-6.22,-36.02,70.22,15.19
Sabha,22,LY,1561677210,19,27.03,14.43,89.87,12.95
Winslow,20,GB,1561677361,93,51.94,-0.88,59.0,11.41
Aljezur,0,PT,1561677361,89,37.31,-8.8,66.99,10.89
Riyadh,0,SA,1561677362,9,24.63,46.72,89.6,1.39
Halifax,90,CA,1561677094,93,44.65,-63.58,55.99,12.75
Sorong,85,ID,1561677362,80,-0.86,131.25,80.57,10.96
Jodhpur,47,IN,1561677363,51,26.3,73.04,89.48,18.84
Lisakovsk,91,KZ,1561677363,88,52.55,62.49,54.59,4.29
Tocache,39,PE,1561677363,96,-8.19,-76.51,55.84,1.52
Kristiansund,100,NO,1561677364,81,63.12,7.73,51.8,21.92
Northam,75,AU,1561677364,93,-31.65,116.67,46.4,3.36
Shenkursk,100,RU,1561677364,77,62.11,42.91,48.38,4.47
San Vicente,20,EC,1561677365,74,-0.59,-80.41,80.6,9.17
Kirakira,97,SB,1561677365,76,-10.46,161.92,81.63,3.51
Bilibino,100,RU,1561677366,84,68.06,166.44,45.11,3.11
Steinfurt,75,DE,1561677366,76,52.13,7.39,60.01,5.82
Wahiawa,75,US,1561677366,88,21.5,-158.02,84.0,10.29
Martapura,22,ID,1561677366,82,-3.41,114.85,77.74,7.85
Chupa,40,PE,1561677367,21,-15.11,-69.99,60.8,2.24
Namanyere,5,TZ,1561677367,60,-7.51,31.05,58.34,5.26
Pimentel,100,BR,1561677367,91,-3.7,-45.5,74.2,1.41
Kavali,67,IN,1561677368,62,14.91,79.99,83.21,16.37
Petropavlovsk-Kamchatskiy,100,RU,1561677243,66,53.05,158.65,55.4,2.24
Los Aquijes,90,PE,1561677368,30,-14.1,-75.69,71.6,6.93
Holly Hill,40,US,1561677368,70,29.24,-81.04,89.6,13.87
Krasnopavlivka,100,UA,1561677369,97,49.15,36.33,64.46,9.51
Iralaya,75,HN,1561677369,74,15.0,-83.23,86.0,9.17
Conde,1,BR,1561677369,97,-11.81,-37.61,67.91,2.73
Skibbereen,20,IE,1561677369,68,51.55,-9.27,64.4,23.04
Isla Mujeres,40,MX,1561677311,66,21.23,-86.73,87.8,8.05
Filadelfia,98,PY,1561677370,67,-22.35,-60.04,73.21,14.36
Boke,100,GN,1561677370,90,10.95,-14.28,77.27,7.0
Mana,13,NG,1561677371,52,13.03,5.27,86.89,13.22
Felanitx,0,ES,1561677371,78,39.47,3.15,79.0,2.24
Cantagallo,75,CO,1561677371,62,7.38,-73.91,89.6,5.82
Lata,41,IN,1561677371,74,30.78,78.62,35.62,3.11
Aykhal,75,RU,1561677372,77,65.95,111.51,60.8,6.71
Prince Rupert,75,CA,1561677372,87,54.32,-130.32,60.8,3.36
Stephenville,75,CA,1561677372,67,48.55,-58.59,57.2,10.29
Tilichiki,98,RU,1561677373,73,60.47,166.1,48.91,7.99
Vavoua,70,CI,1561677373,98,7.38,-6.48,72.23,4.03
Siocon,92,PH,1561677373,71,11.03,124.04,84.06,10.13
Daru,93,PG,1561677373,89,-9.07,143.21,77.58,12.64
Nacala,0,MZ,1561677374,86,-14.56,40.69,64.49,7.99
Saint-Francois,0,FR,1561677374,83,46.42,3.91,73.4,3.6
North Platte,1,US,1561677374,46,41.12,-100.77,91.0,4.7
Gioia del Colle,0,IT,1561677375,68,40.8,16.92,78.01,6.93
Topi,0,PK,1561677375,42,34.07,72.61,86.0,6.93
Amapa,40,HN,1561677375,70,15.09,-87.97,86.0,16.11
Linxia,81,CN,1561677375,68,35.6,103.21,52.6,0.6
Vestmannaeyjar,100,IS,1561677291,97,63.44,-20.27,52.78,18.48
Rudkobing,8,DK,1561677376,87,54.94,10.71,62.01,12.75
Eydhafushi,21,MV,1561677376,73,5.1,73.07,83.41,8.84
Yebaishou,100,CN,1561677377,70,41.4,119.64,70.13,3.62
Eruwa,81,NG,1561677377,97,7.53,3.42,72.18,4.68
Neuquen,0,AR,1561677377,54,-38.95,-68.06,55.4,6.93
Vvedenskoye,90,RU,1561677378,93,55.29,38.01,59.0,4.47
Ligayan,88,PH,1561677378,77,4.65,119.47,84.6,8.79
Ribeira Brava,20,PT,1561677378,68,32.65,-17.07,66.2,4.7
La Sarre,78,CA,1561677379,57,48.8,-79.2,67.01,1.19
Arecibo,75,PR,1561677379,78,18.47,-66.72,82.99,12.75
Laramie,1,US,1561677379,19,41.31,-105.59,84.2,16.11
Makakilo City,75,US,1561677379,88,21.35,-158.09,84.0,10.29
Mnogovershinnyy,0,RU,1561677380,47,53.94,139.92,65.66,5.37
Umm Lajj,0,SA,1561677205,65,25.02,37.27,86.18,13.76
Lubumbashi,0,CD,1561677380,60,-11.66,27.48,52.38,5.95
Coahuayana,81,MX,1561677381,61,18.62,-100.35,82.64,3.27
Sterling,75,US,1561677095,83,39.0,-77.4,86.0,9.17
Sao Felix do Xingu,0,BR,1561677381,69,-6.64,-51.99,74.3,4.25
Phuthaditjhaba,0,ZA,1561677381,64,-28.53,28.82,39.91,2.39
Taybad,0,IR,1561677382,24,34.74,60.78,72.47,10.22
Tommot,0,RU,1561677382,48,58.97,126.27,69.88,2.86
Santa Maria,0,BR,1561677382,46,-16.02,-48.01,73.4,6.93
Nsoko,16,ZA,1561677383,70,-27.07,31.93,54.31,4.27
Cooma,0,AU,1561677383,100,-36.24,149.13,35.6,12.75
Sorada,89,IN,1561677383,78,19.76,84.43,76.0,6.24
Campoverde,20,EC,1561677384,67,-0.91,-78.62,57.2,17.22
Cassilandia,0,BR,1561677384,66,-19.11,-51.73,69.44,6.51
Enid,40,US,1561677384,39,36.4,-97.88,97.0,17.22
Rio Cuarto,0,AR,1561677384,40,-33.13,-64.35,51.8,5.82
Sibi,3,PK,1561677385,24,29.55,67.88,92.03,5.14
Muroto,75,JP,1561677385,88,33.37,134.14,75.2,3.36
Santa Rosa del Sur,100,CO,1561677385,91,7.96,-74.05,75.26,2.08
Margate,75,AU,1561677380,66,-43.03,147.26,57.0,9.17
Monitos,75,CO,1561677386,79,8.25,-76.05,86.0,6.93
Zonguldak,0,TR,1561677386,61,41.25,31.83,72.36,6.73
Tikapur,6,NP,1561677387,45,28.53,81.12,84.65,5.23
Bichura,100,RU,1561677387,95,50.59,107.6,55.26,9.71
Asti,0,IT,1561677387,57,44.9,8.21,84.0,1.12
Sinfra,75,CI,1561677387,94,6.62,-5.91,75.2,3.94
Archidona,40,EC,1561677388,69,-0.91,-77.81,82.4,4.7
Magadan,26,RU,1561677388,75,59.56,150.8,50.69,6.89
Windhoek,21,NA,1561677388,37,-22.57,17.08,51.01,1.63
Kashary,52,RU,1561677389,58,49.04,41.01,63.97,7.47
Chapais,1,CA,1561677237,68,49.78,-74.86,69.8,9.17
Mateare,40,NI,1561677389,52,12.24,-86.43,91.4,18.34
Muttupet,100,IN,1561677389,53,10.4,79.48,83.11,11.45
Visnes,36,NO,1561677390,76,59.36,5.22,53.6,17.22
Uyuni,13,BO,1561677390,22,-20.46,-66.82,38.74,13.91
Preobrazheniye,52,RU,1561677390,69,42.9,133.91,59.13,3.91
Xixiang,40,CN,1561677391,84,22.58,113.87,87.01,3.36
Launceston,93,AU,1561677391,93,-41.43,147.14,48.99,10.29
Kailua,75,US,1561677391,88,21.39,-157.74,84.0,10.29
Totness,1,US,1561677392,48,33.74,-80.8,89.01,10.29
Quesnel,90,CA,1561677392,87,52.98,-122.49,57.2,6.93
Rena,0,ES,1561677393,43,39.05,-5.81,66.19,6.55
Nefteyugansk,40,RU,1561677393,100,61.09,72.61,48.2,6.71
Gunjur,40,GM,1561677393,83,13.18,-16.76,80.6,4.7
Tuburan,75,PH,1561677394,83,10.73,123.82,80.6,5.82
Macomer,0,IT,1561677394,94,40.26,8.77,77.0,3.36
Kibala,47,TD,1561677394,86,9.11,18.35,74.54,4.32
Kilis,0,TR,1561677394,36,36.72,37.12,75.2,7.96
Jaisalmer,0,IN,1561677395,66,26.91,70.91,83.57,21.68
Chifeng,100,CN,1561677395,81,42.27,118.96,63.04,2.66
Krasnoarmeysk,90,RU,1561677395,100,56.12,38.15,59.0,11.18
Warrnambool,98,AU,1561677396,75,-38.38,142.48,55.0,11.01
Umm Bab,1,QA,1561677396,38,25.21,50.81,89.6,1.12
Langfang,100,CN,1561677396,78,39.51,116.7,80.01,8.95
Sabirabad,0,AZ,1561677397,69,40.01,48.48,75.2,6.93
Lebedinyy,34,RU,1561677397,44,58.52,125.52,65.12,10.58
Yulara,0,AU,1561677397,47,-25.24,130.99,35.6,4.7
Witu,20,KE,1561677398,86,-2.39,40.44,78.8,6.93
Aksu,75,KZ,1561677398,76,52.04,76.93,53.6,11.18
Gonzalez,40,AR,1561677398,81,-42.79,-65.06,42.8,16.11
Shahgarh,79,IN,1561677399,55,24.31,79.12,86.04,16.46
Wuwei,96,CN,1561677399,39,37.93,102.64,66.11,9.26
Muzhi,97,RU,1561677399,72,65.4,64.7,52.38,7.45
Caluquembe,0,AO,1561677400,57,-13.78,14.68,52.4,1.52
Erenhot,0,CN,1561677400,32,43.65,111.97,67.73,19.55
Gravdal,1,NO,1561677401,76,59.79,5.78,53.6,17.22
Cao Bang,57,VN,1561677401,83,22.67,106.25,78.84,1.5
Port Hawkesbury,90,CA,1561677401,76,45.62,-61.36,57.99,5.82
Olga,1,US,1561677402,57,34.11,-118.17,82.99,5.82
Jacareacanga,17,BR,1561677402,68,-6.22,-57.76,77.8,1.41
Maralal,79,KE,1561677402,78,1.1,36.7,63.22,5.86
Rumonge,60,BI,1561677403,66,-3.97,29.44,65.29,3.96
Pokhara,29,NP,1561677236,83,28.21,83.99,54.49,2.35
Camacari,5,BR,1561677250,97,-12.7,-38.32,68.69,2.66
Aksarka,94,RU,1561677403,58,66.56,67.8,51.26,11.54
Terrace Bay,27,CA,1561677404,56,48.78,-87.1,68.26,6.53
Mahon,20,IE,1561677404,68,51.89,-8.4,64.4,23.04
Nyrob,2,RU,1561677404,81,60.74,56.73,46.73,3.02
Aswan,0,EG,1561677263,12,24.09,32.9,96.8,9.17
Le Port,0,FR,1561677405,42,42.87,1.37,81.0,1.99
Ada,0,US,1561677405,62,34.77,-96.68,89.6,9.17
Monrovia,75,LR,1561677405,94,6.33,-10.8,77.0,6.53
Karlskoga,4,SE,1561677406,71,59.33,14.52,55.0,4.7
Dalbandin,0,PK,1561677406,8,28.9,64.41,83.34,9.24
Summerside,90,CA,1561677406,100,46.39,-63.79,57.2,8.05
Porangatu,41,BR,1561677406,46,-13.44,-49.14,74.36,2.51
Sao Joao da Barra,0,BR,1561677381,83,-21.64,-41.05,75.2,4.7
Xinzhou,79,CN,1561677407,68,38.41,112.73,66.11,0.45
Troy,40,US,1561677356,37,42.73,-73.69,84.2,12.75
Chivacoa,20,VE,1561677408,48,10.16,-68.9,82.4,10.29
Ust-Omchug,79,RU,1561677408,62,61.13,149.63,52.9,10.25
Bereda,0,ES,1561677408,93,43.27,-7.54,64.0,2.24
Imeni Poliny Osipenko,99,RU,1561677409,47,52.42,136.49,67.77,3.8
Eagan,75,US,1561677116,61,44.82,-93.17,78.01,5.82
Olinda,20,AU,1561677409,62,-37.84,145.39,59.0,19.46
Piracanjuba,0,BR,1561677409,53,-17.3,-49.02,70.18,6.91
San Jose de Sisa,75,PE,1561677410,290,-6.62,-76.69,62.6,3.36
Pandamatenga,0,BW,1561677410,74,-18.54,25.64,52.16,4.74
Meridian,1,US,1561677242,16,43.61,-116.39,81.0,9.17
Zhigalovo,100,RU,1561677411,68,54.81,105.15,65.12,0.65
Pilar,0,AR,1561677411,66,-34.46,-58.91,57.2,4.7
Maniitsoq,0,GL,1561677412,64,65.42,-52.9,41.9,25.95
Kysyl-Syr,98,RU,1561677412,56,63.9,122.77,72.92,4.43
Ipixuna,20,BR,1561677412,79,-1.76,-48.8,84.2,4.7
Sinnai,0,IT,1561677412,73,39.3,9.2,78.8,5.82
Lypova Dolyna,0,UA,1561677413,93,50.56,33.8,59.15,10.94
Kyabram,0,AU,1561677413,81,-36.31,145.05,51.01,8.99
Shache,99,CN,1561677413,83,38.42,77.24,75.0,9.13
Mareeba,81,AU,1561677414,73,-16.99,145.42,78.01,12.75
Ozark,20,US,1561677389,52,37.02,-93.21,91.0,4.7
Waingapu,0,ID,1561677414,71,-9.65,120.26,70.13,10.11
Sortland,99,NO,1561677414,65,68.69,15.42,46.4,20.8
Nemuro,100,JP,1561677415,82,43.32,145.57,48.83,12.82
Gobabis,0,NA,1561677415,33,-22.45,18.97,59.0,3.36
Teknaf,100,BD,1561677415,81,20.86,92.31,84.44,10.65
Boldumsaz,0,TM,1561677416,33,42.13,59.67,80.6,4.7
Nurota,29,UZ,1561677416,36,40.56,65.69,75.2,9.17
Malihabad,19,IN,1561677416,62,26.92,80.71,87.8,5.82
Barra Patuca,15,HN,1561677417,81,15.8,-84.28,83.45,14.09
Luwuk,100,ID,1561677193,95,-0.95,122.79,65.47,4.94
Qalyub,0,EG,1561677417,69,30.18,31.21,82.4,10.29
Taft,94,PH,1561677418,87,11.9,125.42,79.25,4.97
Suntar,95,RU,1561677418,58,62.16,117.65,72.68,1.86
Norsup,100,VU,1561677418,89,-16.07,167.38,76.05,16.4
Fuerte Olimpo,63,BR,1561677418,65,-21.04,-57.87,76.48,11.9
Coruripe,0,BR,1561677419,93,-10.12,-36.18,68.38,4.16
Weihai,71,CN,1561677419,33,37.5,122.11,81.0,5.99
Ardabil,0,IR,1561677419,76,38.25,48.3,55.4,6.93
Santa Isabel,1,MX,1561677420,16,32.63,-115.58,102.2,8.05
Madang,100,CN,1561677420,88,35.32,102.79,40.82,3.42
Khani,40,GE,1561677420,94,41.96,42.96,73.4,2.24
Titay,99,PH,1561677421,87,7.87,122.56,80.1,8.79
Ostersund,99,SE,1561677421,81,63.18,14.64,46.0,13.87
Monster,90,NL,1561677421,82,52.03,4.17,60.01,5.82
Merauke,83,ID,1561677421,84,-8.49,140.4,79.29,23.53
Carutapera,26,BR,1561677422,81,-1.2,-46.02,79.06,8.1
Kantunilkin,40,MX,1561677422,66,21.1,-87.49,87.8,8.05
La Orilla,69,MX,1561677422,66,18.0,-102.23,86.47,10.09
Okoneshnikovo,47,RU,1561677423,93,54.84,75.08,47.56,6.67
Shumskiy,67,RU,1561677423,66,54.83,99.13,65.45,1.77
Ilebo,99,CD,1561677423,93,-4.33,20.59,69.5,2.01
Requena,0,ES,1561677424,65,39.49,-1.1,77.0,2.24
Ariguani,94,CO,1561677424,64,10.25,-74.0,83.75,5.1
Elizabeth City,20,US,1561677344,51,36.3,-76.22,90.0,5.82
Savannah Bight,0,HN,1561677425,80,16.45,-85.85,83.29,17.94
Mukhen,95,RU,1561677425,59,48.19,136.14,64.82,5.21
Okha,0,RU,1561677425,63,53.59,142.95,55.06,12.8
Bam,0,IR,1561677425,17,29.11,58.36,66.83,3.53
Bundi,19,IN,1561677426,52,25.44,75.64,89.37,12.84
Unai,0,BR,1561677426,61,-16.36,-46.91,66.98,3.42
Shelopugino,35,RU,1561677427,51,51.65,117.56,65.41,5.39
Chillicothe,1,US,1561677427,94,39.33,-82.98,84.0,4.38
Mecca,38,SA,1561677427,42,21.43,39.83,86.42,5.12
San Quintin,100,PH,1561677427,96,17.54,120.52,74.48,5.06
Idlib,0,SY,1561677428,74,35.93,36.64,79.0,20.8
Yarmouth,90,CA,1561677135,77,43.84,-66.12,63.0,12.75
Egvekinot,100,RU,1561677428,95,66.32,-179.17,43.81,6.44
Knyaze-Volkonskoye,0,RU,1561677428,72,48.46,135.46,59.0,2.24
Katangli,0,RU,1561677313,55,51.71,143.23,63.99,10.71
Glenwood Springs,1,US,1561677429,27,39.55,-107.33,89.6,13.87
Atikokan,89,CA,1561677429,46,48.76,-91.62,75.02,5.12
Cestas,0,FR,1561677430,62,44.74,-0.68,84.2,6.93
Canon City,1,US,1561677430,5,39.46,-117.13,82.4,9.17
Tono,75,JP,1561677430,93,39.35,141.52,64.4,14.99
Rossland,35,CA,1561677214,34,49.08,-117.8,66.99,5.99
Barber,1,US,1561677431,24,39.71,-121.84,81.0,4.7
Salekhard,85,RU,1561677431,63,66.54,66.62,51.34,9.08
Mwene-Ditu,10,CD,1561677431,46,-7.01,23.45,67.88,4.79
Tarbes,0,FR,1561677432,83,43.23,0.08,79.0,3.36
Mackay,90,CA,1561677432,93,53.65,-115.58,64.4,2.24
Kushima,75,JP,1561677432,94,31.5,131.29,75.2,4.7
Caraquet,90,CA,1561677433,100,47.79,-64.94,57.2,5.82
Port Angeles,90,US,1561677166,87,48.12,-123.43,66.99,6.93
Houston,1,US,1561676914,65,29.76,-95.37,88.0,7.78
Wladyslawowo,75,PL,1561677434,93,54.79,18.4,62.01,4.7
Luganville,100,VU,1561677434,93,-15.51,167.18,73.84,3.67
Oudtshoorn,0,ZA,1561677435,17,-33.59,22.2,57.2,12.75
Benguela,87,AO,1561677435,82,-12.58,13.4,68.58,15.7
The Pas,1,CA,1561677435,43,53.82,-101.24,73.4,3.36
Adelaide,0,AU,1561677234,51,-34.93,138.6,63.0,20.8
Palanit,100,PH,1561677436,78,12.32,124.34,84.08,18.16
Bucerias,75,MX,1561677429,52,20.76,-105.33,89.01,9.17
Chicama,40,PE,1561677436,82,-7.84,-79.15,66.2,9.17
Betanzos,0,ES,1561677437,93,43.28,-8.21,64.0,2.24
General Pico,31,AR,1561677437,59,-35.66,-63.75,46.75,8.68
Havre,40,US,1561677437,60,48.55,-109.68,75.2,11.41
Zelenoborsk,53,RU,1561677437,61,61.47,64.05,50.62,2.42
Sunbury,20,AU,1561677438,62,-37.58,144.73,59.0,19.46
Batsfjord,40,NO,1561677438,75,70.63,29.72,41.0,12.75
Loningen,75,DE,1561677438,76,52.73,7.77,59.0,5.82
Derzhavinsk,99,KZ,1561677438,66,51.1,66.31,57.02,10.0
Dedza,0,MW,1561677439,92,-14.38,34.33,48.31,3.56
Houma,100,CN,1561677439,87,35.63,111.36,66.37,8.16
Sompeta,100,IN,1561677439,68,18.93,84.6,83.99,3.76
Yurty,15,RU,1561677440,58,56.05,97.64,68.36,2.06
Achit,86,RU,1561677440,95,56.8,57.9,47.36,8.12
Balasore,100,IN,1561677440,83,21.5,86.92,82.49,1.92
Rietavas,0,LT,1561677441,87,55.72,21.93,53.6,4.7
Mishkino,0,RU,1561677441,93,56.22,46.62,48.2,6.71
Mount Isa,0,AU,1561677271,63,-20.73,139.49,60.8,3.36
Troitsko-Pechorsk,30,RU,1561677442,65,62.71,56.19,49.28,1.7
Dudinka,75,RU,1561677442,81,69.41,86.18,44.6,8.95
Shymkent,90,KZ,1561677442,46,42.31,69.59,69.8,6.71
Wawa,19,NG,1561677443,92,9.9,4.41,74.29,4.21
Sovetskiy,0,RU,1561677443,90,56.76,48.47,43.45,5.79
Chamba,0,IN,1561677444,38,32.56,76.12,69.93,9.78
Dawson Creek,20,CA,1561677444,87,55.76,-120.23,60.8,6.93
Yining,96,CN,1561677444,78,29.04,114.56,82.76,1.01
Solnechnyy,100,RU,1561677444,46,50.72,136.64,68.81,1.54
Abu Samrah,0,SY,1561677254,50,35.3,37.18,73.19,10.78
Shalinskoye,10,RU,1561677445,70,55.72,93.76,68.31,0.74
Kamenka,55,MD,1561677446,76,48.03,28.7,63.0,9.89
Douentza,76,ML,1561677446,25,15.01,-2.95,93.51,2.08
Carbonia,0,IT,1561677446,73,39.17,8.53,78.8,5.82
Atar,0,MR,1561677447,11,20.52,-13.05,94.54,15.19
Rocha,45,UY,1561677447,84,-34.48,-54.34,43.29,8.23
Nokia,0,FI,1561677447,66,61.48,23.51,53.6,6.93
Pulsano,0,IT,1561677447,78,40.38,17.36,78.01,9.17
Pravokumskoye,0,RU,1561677448,59,44.77,44.65,75.08,7.14
Khandbari,74,NP,1561677448,89,27.38,87.21,55.64,2.26
Tyrma,59,RU,1561677448,45,50.04,132.17,65.52,4.07
Madimba,75,CM,1561677449,100,4.42,9.93,75.2,1.12
Marfino,90,RU,1561677449,100,56.07,37.56,59.0,11.18
Vestmanna,100,FO,1561677253,100,62.16,-7.17,50.0,13.87
Khor,96,RU,1561677449,83,47.88,134.96,59.45,8.12
Treinta y Tres,50,UY,1561677450,84,-33.23,-54.39,44.1,7.02
Diffa,46,NE,1561677450,39,13.32,12.61,88.94,8.03
Kautokeino,98,NO,1561677450,66,69.01,23.04,38.63,11.77
Timizart,0,DZ,1561677451,80,36.8,4.25,74.21,17.52
Wajima,100,JP,1561677451,97,37.4,136.9,70.24,10.25
Pervomayskoye,0,RU,1561677451,85,57.07,86.23,66.29,2.26
Baoshan,83,CN,1561677452,88,31.41,121.49,95.0,6.71
Molteno,0,ZA,1561677452,43,-31.4,26.36,52.33,19.82
Cairns,72,AU,1561677430,73,-16.92,145.77,78.01,12.75
Inuvik,75,CA,1561677434,36,68.36,-133.71,60.8,5.82
Talas,93,KG,1561677453,44,42.52,72.24,60.28,4.7
Belaya Gora,15,RU,1561677453,25,68.54,146.19,67.93,8.75
Sao Lourenco do Sul,0,BR,1561677453,100,-31.37,-51.98,53.6,6.93
Minab,63,IR,1561677454,52,27.15,57.07,91.4,0.63
Alma,40,US,1561677454,23,39.28,-106.06,80.6,23.04
El Estor,100,GT,1561677454,96,15.53,-89.34,74.21,1.34
Wanaka,18,NZ,1561677455,73,-44.7,169.14,37.12,4.79
Raymondville,20,US,1561677455,58,37.34,-91.83,87.8,8.05
Talaya,0,RU,1561677455,93,55.79,84.89,57.2,2.19
Sao Gabriel da Cachoeira,35,BR,1561677268,94,-0.13,-67.09,75.2,0.81
Balkhash,24,KZ,1561677456,34,46.84,74.98,76.99,11.41
Sao Mateus,25,BR,1561677456,94,-18.72,-39.86,70.11,3.56
Acari,27,BR,1561677456,72,-6.44,-36.64,75.46,16.67
Polis,75,CY,1561677457,88,35.04,32.42,75.2,6.93
Barillas,100,ES,1561677457,28,41.97,-1.66,84.2,13.87
Changji,68,CN,1561677457,67,32.07,116.17,83.84,3.89
Kon Tum,66,VN,1561677457,98,14.36,108.0,72.43,2.1
Edd,94,ER,1561677458,34,13.93,41.69,92.38,9.24
Inongo,90,CD,1561677458,82,-1.93,18.29,73.73,1.97
Zaraza,0,VE,1561677459,79,9.35,-65.33,75.71,6.89
Hinundayan,100,PH,1561677459,77,10.35,125.25,79.61,4.74
Kijang,75,KR,1561677460,83,35.24,129.21,75.2,9.17
Roald,40,NO,1561677460,81,62.58,6.12,51.8,11.41
Uttarkashi,0,IN,1561677460,54,30.73,78.44,59.33,5.21
Mersin,75,TR,1561677460,83,36.81,34.63,81.0,2.24
Kasongo,70,CD,1561677461,80,-4.43,26.67,72.95,2.21
General Roca,0,AR,1561677461,54,-39.03,-67.58,55.4,6.93
Marrakesh,40,MA,1561677461,64,31.63,-7.99,71.6,10.29
Nador,75,MA,1561677462,83,35.17,-2.93,73.4,8.05
Samarkand,31,UZ,1561677462,38,39.65,66.98,73.4,6.93
Grand Gaube,75,MU,1561677462,78,-20.01,57.66,73.4,16.11
Angoche,0,MZ,1561677463,97,-16.23,39.91,63.04,5.82
Santa Marinella,0,IT,1561677463,78,42.04,11.87,81.0,4.7
Yermakovskoye,99,RU,1561677463,87,53.28,92.4,63.83,1.74
Naron,0,ES,1561677464,93,43.52,-8.15,64.0,2.24
Ajdabiya,0,LY,1561677464,87,30.75,20.22,76.05,10.42
Mersing,22,MY,1561677464,89,2.43,103.84,76.9,2.28
Uddevalla,31,SE,1561677464,76,58.35,11.94,61.0,3.36
Port-Cartier,90,CA,1561677465,87,50.03,-66.88,57.0,9.17
Emba,75,CY,1561677465,88,34.81,32.42,75.2,6.93
Pangnirtung,75,CA,1561677465,52,66.15,-65.72,46.4,20.8
Maragogi,4,BR,1561677360,92,-9.01,-35.22,70.58,4.59
Kuusamo,0,FI,1561677466,81,65.96,29.19,42.8,5.82
Likasi,0,CD,1561677466,63,-10.99,26.74,52.09,4.54
Bagepalli,40,IN,1561677466,100,13.78,77.8,71.6,11.41
Mhango,97,TZ,1561677467,74,-2.75,33.92,65.07,3.44
Wairoa,0,NZ,1561677467,71,-39.04,177.43,48.99,4.0
Haradok,89,BY,1561677467,84,55.46,29.99,55.55,13.33
Chalmette,75,US,1561677467,74,29.94,-89.96,96.8,12.75
Katima Mulilo,0,NA,1561677468,55,-17.5,24.28,60.8,4.7
Baoqing,100,CN,1561677468,95,46.32,132.2,59.63,1.19
Umm Kaddadah,24,SD,1561677469,34,13.6,26.69,90.22,11.5
Yangambi,100,CD,1561677469,98,0.77,24.47,67.68,2.62
Zirc,0,HU,1561677469,59,47.26,17.87,66.2,9.17
Kimbe,65,PG,1561677470,71,-5.56,150.15,83.54,1.16
Kandalaksha,13,RU,1561677470,88,67.15,32.41,40.84,9.13
Aanekoski,0,FI,1561677470,66,62.6,25.73,50.0,10.29
Baykit,66,RU,1561677471,40,61.68,96.39,74.18,5.12
Atbasar,97,KZ,1561677471,76,51.81,68.36,49.75,8.57
Iskateley,100,RU,1561677471,76,67.68,53.15,53.1,6.02
Yasnyy,99,RU,1561677471,68,64.04,44.09,49.99,5.06
Kroya,0,ID,1561677472,70,-6.5,108.06,74.03,7.9
Camocim,26,BR,1561677472,88,-2.9,-40.84,74.97,6.13
Flin Flon,75,CA,1561677472,40,54.77,-101.88,71.6,10.29
Angoram,92,PG,1561677473,90,-4.06,144.07,79.29,2.37
Nobeoka,100,JP,1561677473,90,32.66,131.66,72.0,2.66
Begun,88,IN,1561677473,68,24.99,75.01,83.86,9.62
Jinchang,100,CN,1561677473,40,38.52,102.19,61.34,6.98
Koroni,0,GR,1561677474,88,36.8,21.96,79.0,5.26
Palma del Rio,0,ES,1561677474,60,37.7,-5.28,78.8,6.93
Tierra Blanca,43,MX,1561677474,79,18.45,-96.36,81.79,5.44
Pedasi,100,PA,1561677475,88,7.53,-80.03,77.09,2.55
Ovsyanka,81,RU,1561677475,43,53.58,126.91,70.45,3.67
Marovoay,20,MG,1561677476,73,-16.11,46.64,73.4,4.7
Lanigan,77,CA,1561677476,62,51.85,-105.03,71.03,9.84
Tevriz,3,RU,1561677476,89,57.51,72.4,46.76,2.84
Xiongzhou,54,CN,1561677477,94,32.34,118.83,84.0,4.47
Panaba,50,MX,1561677477,78,21.28,-88.27,82.19,13.56
Labytnangi,68,RU,1561677477,77,66.66,66.39,46.53,0.29
Biak,100,ID,1561677478,95,-0.91,122.88,65.47,4.94
Stromness,1,CA,1561677478,44,42.87,-79.55,84.2,4.7
Humaita,0,AR,1561677478,66,-24.93,-65.37,55.4,10.29
Bosanski Brod,75,BA,1561677479,100,45.14,17.99,66.2,5.82
Mundelein,90,US,1561677479,78,42.26,-88.0,91.4,17.22
Cedar City,1,US,1561677290,7,37.68,-113.06,84.2,18.34
Borba,39,BR,1561677480,73,-4.39,-59.59,79.49,1.95
Maracaibo,20,CO,1561677480,61,3.41,-75.78,82.4,13.87
Krasnyy Chikoy,100,RU,1561677481,97,50.36,108.75,53.17,8.08
Tymovskoye,52,RU,1561677481,43,50.85,142.66,67.3,1.99
Tual,75,ID,1561677185,84,-5.67,132.75,78.34,18.16
San Luis,74,AR,1561677481,39,-33.3,-66.34,50.36,6.02
Chilon,0,BO,1561677482,74,-18.0,-64.64,55.26,3.87
Valeni,98,RO,1561677482,84,46.59,28.06,66.67,12.35
Susangerd,0,IR,1561677482,34,31.56,48.19,93.2,4.7
Mangaldai,75,IN,1561677483,100,26.43,92.03,80.6,1.52
Bambanglipuro,90,ID,1561677483,75,-7.95,110.28,77.0,13.49
Auki,17,NG,1561677483,75,12.18,6.51,77.33,11.12
Shahrud,43,IR,1561677484,66,36.42,54.97,56.5,3.74
Taldom,100,RU,1561677484,97,56.73,37.53,54.72,15.95
Maple Creek,100,CA,1561677485,70,49.91,-109.46,70.56,16.51
Horta,20,BR,1561677485,65,-10.93,-37.66,80.6,10.29
Soe,40,EE,1561677485,93,57.91,26.05,53.6,6.93
Pahrump,1,US,1561677486,7,36.21,-115.98,99.0,16.11
Djenne,97,ML,1561677486,37,13.91,-4.55,90.67,7.11
Palanga,67,RO,1561677486,67,44.45,25.08,73.49,6.71
Inta,73,RU,1561677487,73,66.04,60.13,50.47,7.47
Manuk Mangkaw,62,PH,1561677487,77,4.8,119.85,84.53,10.76
Isla Vista,20,US,1561677488,64,34.41,-119.86,79.0,8.05
Sisimiut,91,GL,1561677488,85,66.94,-53.67,36.05,25.14
Nettuno,0,IT,1561677488,53,41.46,12.66,80.01,4.7
